[{"name_en":"Cultural Landscape and Archaeological Remains of the Bamiyan Valley","longitude":"67.82525","latitude":"34.84694","states_name_en":"Afghanistan","region_en":"Asia and the Pacific"},{"name_en":"Minaret and Archaeological Remains of Jam","longitude":"64.5158888889","latitude":"34.3964166667","states_name_en":"Afghanistan","region_en":"Asia and the Pacific"},{"name_en":"Historic Centres of Berat and Gjirokastra ","longitude":"20.13333333","latitude":"40.06944444","states_name_en":"Albania","region_en":"Europe and North America"},{"name_en":"Butrint","longitude":"20.02611111","latitude":"39.75111111","states_name_en":"Albania","region_en":"Europe and North America"},{"name_en":"Al Qal'a of Beni Hammad","longitude":"4.78684","latitude":"35.81844","states_name_en":"Algeria","region_en":"Arab States"},{"name_en":"Tassili n'Ajjer","longitude":"9.0","latitude":"25.5","states_name_en":"Algeria","region_en":"Arab States"},{"name_en":"M'Zab Valley","longitude":"3.68333","latitude":"32.48333","states_name_en":"Algeria","region_en":"Arab States"},{"name_en":"Djémila","longitude":"5.73667","latitude":"36.32056","states_name_en":"Algeria","region_en":"Arab States"},{"name_en":"Tipasa","longitude":"2.383333333","latitude":"36.55","states_name_en":"Algeria","region_en":"Arab States"},{"name_en":"Timgad","longitude":"6.4688611111","latitude":"35.4841666667","states_name_en":"Algeria","region_en":"Arab States"},{"name_en":"Kasbah of Algiers","longitude":"3.06028","latitude":"36.78333","states_name_en":"Algeria","region_en":"Arab States"},{"name_en":"Madriu-Perafita-Claror Valley","longitude":"1.595555556","latitude":"42.49472222","states_name_en":"Andorra","region_en":"Europe and North America"},{"name_en":"Mbanza Kongo, Vestiges of the Capital of the former Kingdom of Kongo","longitude":"14.2497222222","latitude":"-6.2688888889","states_name_en":"Angola","region_en":"Africa"},{"name_en":"Antigua Naval Dockyard and Related Archaeological Sites","longitude":"-61.7616666667","latitude":"17.0069444444","states_name_en":"Antigua and Barbuda","region_en":"Latin America and the Caribbean"},{"name_en":"Los Glaciares National Park","longitude":"-73.24944","latitude":"-50.0","states_name_en":"Argentina","region_en":"Latin America and the Caribbean"},{"name_en":"Iguazu National Park","longitude":"-54.13333333","latitude":"-25.51805556","states_name_en":"Argentina","region_en":"Latin America and the Caribbean"},{"name_en":"Cueva de las Manos, Río Pinturas","longitude":"-70.66666667","latitude":"-47.15","states_name_en":"Argentina","region_en":"Latin America and the Caribbean"},{"name_en":"Península Valdés","longitude":"-64.0","latitude":"-42.5","states_name_en":"Argentina","region_en":"Latin America and the Caribbean"},{"name_en":"Ischigualasto / Talampaya Natural Parks","longitude":"-68.0","latitude":"-30.0","states_name_en":"Argentina","region_en":"Latin America and the Caribbean"},{"name_en":"Jesuit Block and Estancias of Córdoba","longitude":"-64.19111","latitude":"-31.42056","states_name_en":"Argentina","region_en":"Latin America and the Caribbean"},{"name_en":"Quebrada de Humahuaca","longitude":"-65.34886111","latitude":"-23.19986111","states_name_en":"Argentina","region_en":"Latin America and the Caribbean"},{"name_en":"Los Alerces National Park","longitude":"-71.8728","latitude":"-42.8528","states_name_en":"Argentina","region_en":"Latin America and the Caribbean"},{"name_en":"Monasteries of Haghpat and Sanahin","longitude":"44.71028","latitude":"41.095","states_name_en":"Armenia","region_en":"Europe and North America"},{"name_en":"Monastery of Geghard and the Upper Azat Valley","longitude":"44.79667","latitude":"40.15889","states_name_en":"Armenia","region_en":"Europe and North America"},{"name_en":"Cathedral and Churches of Echmiatsin and the Archaeological Site of Zvartnots","longitude":"44.29514","latitude":"40.15931","states_name_en":"Armenia","region_en":"Europe and North America"},{"name_en":"Kakadu National Park","longitude":"132.8333333","latitude":"-12.83333333","states_name_en":"Australia","region_en":"Asia and the Pacific"},{"name_en":"Great Barrier Reef","longitude":"147.7","latitude":"-18.28611111","states_name_en":"Australia","region_en":"Asia and the Pacific"},{"name_en":"Sydney Opera House","longitude":"151.2152777777","latitude":"-33.8566666667","states_name_en":"Australia","region_en":"Asia and the Pacific"},{"name_en":"Willandra Lakes Region","longitude":"143.0","latitude":"-34.0","states_name_en":"Australia","region_en":"Asia and the Pacific"},{"name_en":"Tasmanian Wilderness","longitude":"145.4166667","latitude":"-41.58333333","states_name_en":"Australia","region_en":"Asia and the Pacific"},{"name_en":"Lord Howe Island Group","longitude":"159.0883333","latitude":"-31.56555556","states_name_en":"Australia","region_en":"Asia and the Pacific"},{"name_en":"Gondwana Rainforests of Australia","longitude":"150.05","latitude":"-28.25","states_name_en":"Australia","region_en":"Asia and the Pacific"},{"name_en":"Ulu<U>r</U>u-Kata Tju<U>t</U>a National Park","longitude":"131.0","latitude":"-25.33333333","states_name_en":"Australia","region_en":"Asia and the Pacific"},{"name_en":"Wet Tropics of Queensland","longitude":"144.9666667","latitude":"-15.65","states_name_en":"Australia","region_en":"Asia and the Pacific"},{"name_en":"Heard and McDonald Islands","longitude":"73.5","latitude":"-53.1","states_name_en":"Australia","region_en":"Asia and the Pacific"},{"name_en":"Shark Bay, Western Australia","longitude":"113.4361111","latitude":"-25.48611111","states_name_en":"Australia","region_en":"Asia and the Pacific"},{"name_en":"Macquarie Island","longitude":"158.8955556","latitude":"-54.59472222","states_name_en":"Australia","region_en":"Asia and the Pacific"},{"name_en":"Fraser Island","longitude":"153.1333333","latitude":"-25.21666667","states_name_en":"Australia","region_en":"Asia and the Pacific"},{"name_en":"Australian Fossil Mammal Sites (Riversleigh / Naracoorte)","longitude":"138.7166667","latitude":"-19.08333333","states_name_en":"Australia","region_en":"Asia and the Pacific"},{"name_en":"Greater Blue Mountains Area","longitude":"150.0","latitude":"-33.7","states_name_en":"Australia","region_en":"Asia and the Pacific"},{"name_en":"Purnululu National Park","longitude":"128.5","latitude":"-17.5","states_name_en":"Australia","region_en":"Asia and the Pacific"},{"name_en":"Royal Exhibition Building and Carlton Gardens","longitude":"144.9702778","latitude":"-37.80611111","states_name_en":"Australia","region_en":"Asia and the Pacific"},{"name_en":"Australian Convict Sites","longitude":"150.9944444444","latitude":"-33.3783333333","states_name_en":"Australia","region_en":"Asia and the Pacific"},{"name_en":"Ningaloo Coast","longitude":"113.8102777778","latitude":"-22.5625","states_name_en":"Australia","region_en":"Asia and the Pacific"},{"name_en":"Historic Centre of the City of Salzburg","longitude":"13.04333333","latitude":"47.80055556","states_name_en":"Austria","region_en":"Europe and North America"},{"name_en":"Semmering Railway","longitude":"15.82797222","latitude":"47.64877778","states_name_en":"Austria","region_en":"Europe and North America"},{"name_en":"Palace and Gardens of Schönbrunn","longitude":"16.31333333","latitude":"48.18666667","states_name_en":"Austria","region_en":"Europe and North America"},{"name_en":"Hallstatt-Dachstein / Salzkammergut Cultural Landscape","longitude":"13.64638889","latitude":"47.55944444","states_name_en":"Austria","region_en":"Europe and North America"},{"name_en":"City of Graz – Historic Centre and Schloss Eggenberg","longitude":"15.3916666667","latitude":"47.0741666667","states_name_en":"Austria","region_en":"Europe and North America"},{"name_en":"Wachau Cultural Landscape","longitude":"15.43416667","latitude":"48.36444444","states_name_en":"Austria","region_en":"Europe and North America"},{"name_en":"Historic Centre of Vienna","longitude":"16.38333333","latitude":"48.21666667","states_name_en":"Austria","region_en":"Europe and North America"},{"name_en":"Walled City of Baku with the Shirvanshah's Palace and Maiden Tower","longitude":"49.83333333","latitude":"40.36666667","states_name_en":"Azerbaijan","region_en":"Europe and North America"},{"name_en":"Gobustan Rock Art Cultural Landscape","longitude":"49.375","latitude":"40.125","states_name_en":"Azerbaijan","region_en":"Europe and North America"},{"name_en":"Qal’at al-Bahrain – Ancient Harbour and Capital of Dilmun","longitude":"50.5272222222","latitude":"26.23306","states_name_en":"Bahrain","region_en":"Arab States"},{"name_en":"Pearling, Testimony of an Island Economy","longitude":"50.61351","latitude":"26.24128","states_name_en":"Bahrain","region_en":"Arab States"},{"name_en":"Historic Mosque City of Bagerhat","longitude":"89.8","latitude":"22.66667","states_name_en":"Bangladesh","region_en":"Asia and the Pacific"},{"name_en":"Ruins of the Buddhist Vihara at Paharpur","longitude":"88.98333333","latitude":"25.03333333","states_name_en":"Bangladesh","region_en":"Asia and the Pacific"},{"name_en":"The Sundarbans","longitude":"89.18333","latitude":"21.95","states_name_en":"Bangladesh","region_en":"Asia and the Pacific"},{"name_en":"Historic Bridgetown and its Garrison","longitude":"-59.6138888889","latitude":"13.0966666667","states_name_en":"Barbados","region_en":"Latin America and the Caribbean"},{"name_en":"Mir Castle Complex","longitude":"26.47272222","latitude":"53.45108333","states_name_en":"Belarus","region_en":"Europe and North America"},{"name_en":"Architectural, Residential and Cultural Complex of the Radziwill Family at Nesvizh","longitude":"26.69139","latitude":"53.22278","states_name_en":"Belarus","region_en":"Europe and North America"},{"name_en":"Flemish Béguinages","longitude":"4.47375","latitude":"51.03097222","states_name_en":"Belgium","region_en":"Europe and North America"},{"name_en":"The Four Lifts on the Canal du Centre and their Environs, La Louvière and Le Roeulx (Hainaut)","longitude":"4.13722","latitude":"50.48111","states_name_en":"Belgium","region_en":"Europe and North America"},{"name_en":"La Grand-Place, Brussels","longitude":"4.35242","latitude":"50.84668","states_name_en":"Belgium","region_en":"Europe and North America"},{"name_en":"Historic Centre of Brugge","longitude":"3.22527","latitude":"51.20891","states_name_en":"Belgium","region_en":"Europe and North America"},{"name_en":"Major Town Houses of the Architect Victor Horta (Brussels)","longitude":"4.36223","latitude":"50.82806","states_name_en":"Belgium","region_en":"Europe and North America"},{"name_en":"Neolithic Flint Mines at Spiennes (Mons)","longitude":"3.97879","latitude":"50.43077","states_name_en":"Belgium","region_en":"Europe and North America"},{"name_en":"Notre-Dame Cathedral in Tournai","longitude":"3.38926","latitude":"50.60603","states_name_en":"Belgium","region_en":"Europe and North America"},{"name_en":"Plantin-Moretus House-Workshops-Museum Complex","longitude":"4.39778","latitude":"51.21833","states_name_en":"Belgium","region_en":"Europe and North America"},{"name_en":"Stoclet House","longitude":"4.4161111111","latitude":"50.835","states_name_en":"Belgium","region_en":"Europe and North America"},{"name_en":"Major Mining Sites of Wallonia","longitude":"3.8383333333","latitude":"50.4352777778","states_name_en":"Belgium","region_en":"Europe and North America"},{"name_en":"Belize Barrier Reef Reserve System","longitude":"-87.05833333","latitude":"16.75","states_name_en":"Belize","region_en":"Latin America and the Caribbean"},{"name_en":"Royal Palaces of Abomey","longitude":"1.983333333","latitude":"7.183333333","states_name_en":"Benin","region_en":"Africa"},{"name_en":"City of Potosí","longitude":"-65.75306","latitude":"-19.58361","states_name_en":"Bolivia (Plurinational State of)","region_en":"Latin America and the Caribbean"},{"name_en":"Jesuit Missions of the Chiquitos","longitude":"-60.5","latitude":"-16.0","states_name_en":"Bolivia (Plurinational State of)","region_en":"Latin America and the Caribbean"},{"name_en":"Historic City of Sucre","longitude":"-65.25917","latitude":"-19.04306","states_name_en":"Bolivia (Plurinational State of)","region_en":"Latin America and the Caribbean"},{"name_en":"Tiwanaku: Spiritual and Political Centre of the Tiwanaku Culture","longitude":"-68.67778","latitude":"-16.55833333","states_name_en":"Bolivia (Plurinational State of)","region_en":"Latin America and the Caribbean"},{"name_en":"Fuerte de Samaipata","longitude":"-63.81666667","latitude":"-18.16666667","states_name_en":"Bolivia (Plurinational State of)","region_en":"Latin America and the Caribbean"},{"name_en":"Noel Kempff Mercado National Park","longitude":"-60.86667","latitude":"-14.26667","states_name_en":"Bolivia (Plurinational State of)","region_en":"Latin America and the Caribbean"},{"name_en":"Old Bridge Area of the Old City of Mostar","longitude":"17.81092","latitude":"43.34812","states_name_en":"Bosnia and Herzegovina","region_en":"Europe and North America"},{"name_en":"Mehmed Paša Sokolović Bridge in Višegrad","longitude":"19.288025","latitude":"43.7814444444","states_name_en":"Bosnia and Herzegovina","region_en":"Europe and North America"},{"name_en":"Tsodilo","longitude":"21.73333333","latitude":"-18.75","states_name_en":"Botswana","region_en":"Africa"},{"name_en":"Okavango Delta","longitude":"22.9","latitude":"-19.2833333333","states_name_en":"Botswana","region_en":"Africa"},{"name_en":"Historic Town of Ouro Preto","longitude":"-43.50555556","latitude":"-20.38888889","states_name_en":"Brazil","region_en":"Latin America and the Caribbean"},{"name_en":"Historic Centre of the Town of Olinda","longitude":"-34.845","latitude":"-8.013333333","states_name_en":"Brazil","region_en":"Latin America and the Caribbean"},{"name_en":"Historic Centre of Salvador de Bahia","longitude":"-38.5","latitude":"-12.96666667","states_name_en":"Brazil","region_en":"Latin America and the Caribbean"},{"name_en":"Sanctuary of Bom Jesus do Congonhas","longitude":"-43.85777778","latitude":"-20.49972222","states_name_en":"Brazil","region_en":"Latin America and the Caribbean"},{"name_en":"Iguaçu National Park","longitude":"-54.43333","latitude":"-25.68333","states_name_en":"Brazil","region_en":"Latin America and the Caribbean"},{"name_en":"Brasilia","longitude":"-47.9","latitude":"-15.78333","states_name_en":"Brazil","region_en":"Latin America and the Caribbean"},{"name_en":"Serra da Capivara National Park","longitude":"-42.33333333","latitude":"-8.416666667","states_name_en":"Brazil","region_en":"Latin America and the Caribbean"},{"name_en":"Historic Centre of São Luís","longitude":"-44.3025","latitude":"-2.514166667","states_name_en":"Brazil","region_en":"Latin America and the Caribbean"},{"name_en":"Historic Centre of the Town of Diamantina","longitude":"-43.6","latitude":"-18.23333333","states_name_en":"Brazil","region_en":"Latin America and the Caribbean"},{"name_en":"Discovery Coast Atlantic Forest Reserves","longitude":"-39.25","latitude":"-16.5","states_name_en":"Brazil","region_en":"Latin America and the Caribbean"},{"name_en":"Atlantic Forest South-East Reserves","longitude":"-48.0","latitude":"-24.16667","states_name_en":"Brazil","region_en":"Latin America and the Caribbean"},{"name_en":"Historic Centre of the Town of Goiás","longitude":"-50.13336","latitude":"-15.93328","states_name_en":"Brazil","region_en":"Latin America and the Caribbean"},{"name_en":"Central Amazon Conservation Complex","longitude":"-62.00833333","latitude":"-2.333333333","states_name_en":"Brazil","region_en":"Latin America and the Caribbean"},{"name_en":"Pantanal Conservation Area","longitude":"-57.38333","latitude":"-17.71667","states_name_en":"Brazil","region_en":"Latin America and the Caribbean"},{"name_en":"Brazilian Atlantic Islands: Fernando de Noronha and Atol das Rocas Reserves","longitude":"-32.42511111","latitude":"-3.857944444","states_name_en":"Brazil","region_en":"Latin America and the Caribbean"},{"name_en":"Cerrado Protected Areas: Chapada dos Veadeiros and Emas National Parks","longitude":"-47.68461111","latitude":"-14.00569444","states_name_en":"Brazil","region_en":"Latin America and the Caribbean"},{"name_en":"Rio de Janeiro: Carioca Landscapes between the Mountain and the Sea","longitude":"-43.2913888889","latitude":"-22.9477777778","states_name_en":"Brazil","region_en":"Latin America and the Caribbean"},{"name_en":"São Francisco Square in the Town of São Cristóvão","longitude":"-37.21","latitude":"-11.0161111111","states_name_en":"Brazil","region_en":"Latin America and the Caribbean"},{"name_en":"Pampulha Modern Ensemble","longitude":"-43.9736111111","latitude":"-19.8519444444","states_name_en":"Brazil","region_en":"Latin America and the Caribbean"},{"name_en":"Valongo Wharf Archaeological Site","longitude":"-43.1873944444","latitude":"-22.8971111111","states_name_en":"Brazil","region_en":"Latin America and the Caribbean"},{"name_en":"Boyana Church","longitude":"23.26666667","latitude":"42.65","states_name_en":"Bulgaria","region_en":"Europe and North America"},{"name_en":"Madara Rider","longitude":"27.15","latitude":"43.3","states_name_en":"Bulgaria","region_en":"Europe and North America"},{"name_en":"Thracian Tomb of Kazanlak","longitude":"25.4","latitude":"42.61666667","states_name_en":"Bulgaria","region_en":"Europe and North America"},{"name_en":"Rock-Hewn Churches of Ivanovo","longitude":"25.96666667","latitude":"43.71666667","states_name_en":"Bulgaria","region_en":"Europe and North America"},{"name_en":"Rila Monastery","longitude":"23.4","latitude":"42.11666667","states_name_en":"Bulgaria","region_en":"Europe and North America"},{"name_en":"Ancient City of Nessebar","longitude":"27.73","latitude":"42.65611","states_name_en":"Bulgaria","region_en":"Europe and North America"},{"name_en":"Srebarna Nature Reserve","longitude":"27.07806","latitude":"44.11444","states_name_en":"Bulgaria","region_en":"Europe and North America"},{"name_en":"Pirin National Park","longitude":"23.4304722222","latitude":"41.7427222222","states_name_en":"Bulgaria","region_en":"Europe and North America"},{"name_en":"Thracian Tomb of Sveshtari","longitude":"26.66667","latitude":"43.66667","states_name_en":"Bulgaria","region_en":"Europe and North America"},{"name_en":"Ruins of Loropéni","longitude":"-3.5833333333","latitude":"10.25","states_name_en":"Burkina Faso","region_en":"Africa"},{"name_en":"Cidade Velha, Historic Centre of Ribeira Grande","longitude":"-23.6051944444","latitude":"14.9151388889","states_name_en":"Cabo Verde","region_en":"Africa"},{"name_en":"Angkor","longitude":"103.8333333","latitude":"13.43333333","states_name_en":"Cambodia","region_en":"Asia and the Pacific"},{"name_en":"Temple of Preah Vihear","longitude":"104.6838888889","latitude":"14.3883333333","states_name_en":"Cambodia","region_en":"Asia and the Pacific"},{"name_en":"Temple Zone of Sambor Prei Kuk, Archaeological Site of Ancient Ishanapura","longitude":"105.0430555556","latitude":"12.8725","states_name_en":"Cambodia","region_en":"Asia and the Pacific"},{"name_en":"Dja Faunal Reserve","longitude":"13.0","latitude":"3.0","states_name_en":"Cameroon","region_en":"Africa"},{"name_en":"L’Anse aux Meadows National Historic Site","longitude":"-55.61666667","latitude":"51.46666667","states_name_en":"Canada","region_en":"Europe and North America"},{"name_en":"Nahanni National Park","longitude":"-125.5894444","latitude":"61.54722222","states_name_en":"Canada","region_en":"Europe and North America"},{"name_en":"Dinosaur Provincial Park","longitude":"-111.4922222","latitude":"50.76777778","states_name_en":"Canada","region_en":"Europe and North America"},{"name_en":"S<U>G</U>ang Gwaay","longitude":"-131.2202778","latitude":"52.095","states_name_en":"Canada","region_en":"Europe and North America"},{"name_en":"Head-Smashed-In Buffalo Jump","longitude":"-113.6238889","latitude":"49.74944444","states_name_en":"Canada","region_en":"Europe and North America"},{"name_en":"Wood Buffalo National Park","longitude":"-112.2933333","latitude":"59.35833333","states_name_en":"Canada","region_en":"Europe and North America"},{"name_en":"Historic District of Old Québec","longitude":"-71.21055556","latitude":"46.80944444","states_name_en":"Canada","region_en":"Europe and North America"},{"name_en":"Canadian Rocky Mountain Parks","longitude":"-116.4797222","latitude":"51.42472222","states_name_en":"Canada","region_en":"Europe and North America"},{"name_en":"Gros Morne National Park","longitude":"-57.53138889","latitude":"49.6125","states_name_en":"Canada","region_en":"Europe and North America"},{"name_en":"Miguasha National Park","longitude":"-66.35305556","latitude":"48.105","states_name_en":"Canada","region_en":"Europe and North America"},{"name_en":"Old Town Lunenburg","longitude":"-64.30916667","latitude":"44.37611111","states_name_en":"Canada","region_en":"Europe and North America"},{"name_en":"Rideau Canal","longitude":"-75.765125","latitude":"44.9943861111","states_name_en":"Canada","region_en":"Europe and North America"},{"name_en":"Joggins Fossil Cliffs","longitude":"-64.4358333333","latitude":"45.7097222222","states_name_en":"Canada","region_en":"Europe and North America"},{"name_en":"Landscape of Grand Pré","longitude":"-64.3072222222","latitude":"45.1183333333","states_name_en":"Canada","region_en":"Europe and North America"},{"name_en":"Red Bay Basque Whaling Station","longitude":"-56.4295222222","latitude":"51.726925","states_name_en":"Canada","region_en":"Europe and North America"},{"name_en":"Pimachiowin Aki","longitude":"-95.4112777778","latitude":"51.8264166667","states_name_en":"Canada","region_en":"Europe and North America"},{"name_en":"Mistaken Point","longitude":"-53.2111111111","latitude":"46.635","states_name_en":"Canada","region_en":"Europe and North America"},{"name_en":"Manovo-Gounda St Floris National Park","longitude":"21.5","latitude":"9.0","states_name_en":"Central African Republic","region_en":"Africa"},{"name_en":"Lakes of Ounianga","longitude":"20.5055555556","latitude":"19.055","states_name_en":"Chad","region_en":"Africa"},{"name_en":"Ennedi Massif: Natural and Cultural Landscape","longitude":"21.8627777778","latitude":"17.0416666667","states_name_en":"Chad","region_en":"Africa"},{"name_en":"Rapa Nui National Park","longitude":"-109.45","latitude":"-27.15","states_name_en":"Chile","region_en":"Latin America and the Caribbean"},{"name_en":"Historic Quarter of the Seaport City of Valparaíso","longitude":"-71.628","latitude":"-33.04063889","states_name_en":"Chile","region_en":"Latin America and the Caribbean"},{"name_en":"Churches of Chiloé","longitude":"-73.76666667","latitude":"-42.5","states_name_en":"Chile","region_en":"Latin America and the Caribbean"},{"name_en":"Humberstone and Santa Laura Saltpeter Works","longitude":"-69.79406","latitude":"-20.20582","states_name_en":"Chile","region_en":"Latin America and the Caribbean"},{"name_en":"Sewell Mining Town","longitude":"-70.3827777777","latitude":"-34.0844444444","states_name_en":"Chile","region_en":"Latin America and the Caribbean"},{"name_en":"Mount Taishan","longitude":"117.1","latitude":"36.26667","states_name_en":"China","region_en":"Asia and the Pacific"},{"name_en":"The Great Wall","longitude":"116.08333","latitude":"40.41667","states_name_en":"China","region_en":"Asia and the Pacific"},{"name_en":"Imperial Palaces of the Ming and Qing Dynasties in Beijing and Shenyang","longitude":"123.4469444","latitude":"41.79416667","states_name_en":"China","region_en":"Asia and the Pacific"},{"name_en":"Mogao Caves","longitude":"94.81667","latitude":"40.13333","states_name_en":"China","region_en":"Asia and the Pacific"},{"name_en":"Mausoleum of the First Qin Emperor","longitude":"109.1","latitude":"34.38333333","states_name_en":"China","region_en":"Asia and the Pacific"},{"name_en":"Peking Man Site at Zhoukoudian","longitude":"115.9166667","latitude":"39.73333333","states_name_en":"China","region_en":"Asia and the Pacific"},{"name_en":"Mount Huangshan","longitude":"118.18333","latitude":"30.16667","states_name_en":"China","region_en":"Asia and the Pacific"},{"name_en":"Jiuzhaigou Valley Scenic and Historic Interest Area","longitude":"103.91667","latitude":"33.08333","states_name_en":"China","region_en":"Asia and the Pacific"},{"name_en":"Huanglong Scenic and Historic Interest Area","longitude":"103.82222","latitude":"32.75417","states_name_en":"China","region_en":"Asia and the Pacific"},{"name_en":"Wulingyuan Scenic and Historic Interest Area","longitude":"110.5","latitude":"29.33333","states_name_en":"China","region_en":"Asia and the Pacific"},{"name_en":"Mountain Resort and its Outlying Temples, Chengde","longitude":"117.93833","latitude":"40.98694","states_name_en":"China","region_en":"Asia and the Pacific"},{"name_en":"Temple and Cemetery of Confucius and the Kong Family Mansion in Qufu","longitude":"116.975","latitude":"35.61167","states_name_en":"China","region_en":"Asia and the Pacific"},{"name_en":"Ancient Building Complex in the Wudang Mountains","longitude":"111.0","latitude":"32.46667","states_name_en":"China","region_en":"Asia and the Pacific"},{"name_en":"Historic Ensemble of the Potala Palace, Lhasa","longitude":"91.11717","latitude":"29.65792","states_name_en":"China","region_en":"Asia and the Pacific"},{"name_en":"Lushan National Park","longitude":"115.8666667","latitude":"29.43333333","states_name_en":"China","region_en":"Asia and the Pacific"},{"name_en":"Mount Emei Scenic Area, including Leshan Giant Buddha Scenic Area","longitude":"103.76925","latitude":"29.5449","states_name_en":"China","region_en":"Asia and the Pacific"},{"name_en":"Old Town of Lijiang","longitude":"100.23333","latitude":"26.86667","states_name_en":"China","region_en":"Asia and the Pacific"},{"name_en":"Ancient City of Ping Yao","longitude":"112.15444","latitude":"37.20139","states_name_en":"China","region_en":"Asia and the Pacific"},{"name_en":"Classical Gardens of Suzhou","longitude":"120.45","latitude":"31.31666667","states_name_en":"China","region_en":"Asia and the Pacific"},{"name_en":"Summer Palace, an Imperial Garden in Beijing","longitude":"116.1411111","latitude":"39.91055556","states_name_en":"China","region_en":"Asia and the Pacific"},{"name_en":"Temple of Heaven: an Imperial Sacrificial Altar in Beijing","longitude":"116.4447222","latitude":"39.84555556","states_name_en":"China","region_en":"Asia and the Pacific"},{"name_en":"Mount Wuyi","longitude":"117.68333","latitude":"27.71667","states_name_en":"China","region_en":"Asia and the Pacific"},{"name_en":"Dazu Rock Carvings","longitude":"105.705","latitude":"29.70111","states_name_en":"China","region_en":"Asia and the Pacific"},{"name_en":"Mount Qingcheng and the Dujiangyan Irrigation System","longitude":"103.60528","latitude":"31.00167","states_name_en":"China","region_en":"Asia and the Pacific"},{"name_en":"Ancient Villages in Southern Anhui – Xidi and Hongcun","longitude":"117.9875","latitude":"29.90444444","states_name_en":"China","region_en":"Asia and the Pacific"},{"name_en":"Longmen Grottoes","longitude":"112.4666667","latitude":"34.46666667","states_name_en":"China","region_en":"Asia and the Pacific"},{"name_en":"Imperial Tombs of the Ming and Qing Dynasties","longitude":"124.7938889","latitude":"41.70722222","states_name_en":"China","region_en":"Asia and the Pacific"},{"name_en":"Yungang Grottoes","longitude":"113.12222","latitude":"40.10972","states_name_en":"China","region_en":"Asia and the Pacific"},{"name_en":"Three Parallel Rivers of Yunnan Protected Areas","longitude":"98.40638889","latitude":"27.895","states_name_en":"China","region_en":"Asia and the Pacific"},{"name_en":"Historic Centre of Macao","longitude":"113.5364611111","latitude":"22.1912919444","states_name_en":"China","region_en":"Asia and the Pacific"},{"name_en":"Cultural Landscape of Honghe Hani Rice Terraces ","longitude":"102.7799805556","latitude":"23.0932777778","states_name_en":"China","region_en":"Asia and the Pacific"},{"name_en":"Kaiping Diaolou and Villages","longitude":"112.5658611111","latitude":"22.2855194444","states_name_en":"China","region_en":"Asia and the Pacific"},{"name_en":"Fujian <em>Tulou</em>","longitude":"117.6858333333","latitude":"25.0230555556","states_name_en":"China","region_en":"Asia and the Pacific"},{"name_en":"Yin Xu","longitude":"114.3138888888","latitude":"36.1266666666","states_name_en":"China","region_en":"Asia and the Pacific"},{"name_en":"Capital Cities and Tombs of the Ancient Koguryo Kingdom","longitude":"126.1872222","latitude":"41.15694444","states_name_en":"China","region_en":"Asia and the Pacific"},{"name_en":"Sichuan Giant Panda Sanctuaries - Wolong, Mt Siguniang and Jiajin Mountains ","longitude":"103.0","latitude":"30.8333333333","states_name_en":"China","region_en":"Asia and the Pacific"},{"name_en":"South China Karst","longitude":"110.3544444444","latitude":"24.9233333333","states_name_en":"China","region_en":"Asia and the Pacific"},{"name_en":"Mount Wutai","longitude":"113.5633333333","latitude":"39.0305555556","states_name_en":"China","region_en":"Asia and the Pacific"},{"name_en":"Mount Sanqingshan National Park","longitude":"118.0644444444","latitude":"28.9158333333","states_name_en":"China","region_en":"Asia and the Pacific"},{"name_en":"Historic Monuments of Dengfeng in “The Centre of Heaven and Earth”","longitude":"113.0677194444","latitude":"34.4587472222","states_name_en":"China","region_en":"Asia and the Pacific"},{"name_en":"West Lake Cultural Landscape of Hangzhou","longitude":"120.1408333333","latitude":"30.2375","states_name_en":"China","region_en":"Asia and the Pacific"},{"name_en":"China Danxia","longitude":"106.0425","latitude":"28.4219444444","states_name_en":"China","region_en":"Asia and the Pacific"},{"name_en":"Chengjiang Fossil Site","longitude":"102.9772222222","latitude":"24.6688888889","states_name_en":"China","region_en":"Asia and the Pacific"},{"name_en":"Site of Xanadu","longitude":"116.1851277778","latitude":"42.358","states_name_en":"China","region_en":"Asia and the Pacific"},{"name_en":"Xinjiang Tianshan","longitude":"80.3541666667","latitude":"41.9683333333","states_name_en":"China","region_en":"Asia and the Pacific"},{"name_en":"The Grand Canal","longitude":"112.4683333333","latitude":"34.6938888889","states_name_en":"China","region_en":"Asia and the Pacific"},{"name_en":"Tusi Sites","longitude":"109.9669444444","latitude":"28.9986111111","states_name_en":"China","region_en":"Asia and the Pacific"},{"name_en":"Zuojiang Huashan Rock Art Cultural Landscape","longitude":"107.0230555556","latitude":"22.2555555556","states_name_en":"China","region_en":"Asia and the Pacific"},{"name_en":"Hubei Shennongjia","longitude":"110.2438888889","latitude":"31.4697222222","states_name_en":"China","region_en":"Asia and the Pacific"},{"name_en":"Qinghai Hoh Xil","longitude":"92.4391666667","latitude":"35.3802777778","states_name_en":"China","region_en":"Asia and the Pacific"},{"name_en":"Kulangsu, a Historic International Settlement","longitude":"118.0619444444","latitude":"24.4475","states_name_en":"China","region_en":"Asia and the Pacific"},{"name_en":"Fanjingshan","longitude":"108.68","latitude":"27.8955555556","states_name_en":"China","region_en":"Asia and the Pacific"},{"name_en":"Port, Fortresses and Group of Monuments, Cartagena","longitude":"-75.53333333","latitude":"10.41666667","states_name_en":"Colombia","region_en":"Latin America and the Caribbean"},{"name_en":"Los Katíos National Park","longitude":"-77.0","latitude":"7.666666667","states_name_en":"Colombia","region_en":"Latin America and the Caribbean"},{"name_en":"Historic Centre of Santa Cruz de Mompox","longitude":"-74.43333333","latitude":"9.233333333","states_name_en":"Colombia","region_en":"Latin America and the Caribbean"},{"name_en":"National Archeological Park of Tierradentro","longitude":"-76.03333333","latitude":"2.583333333","states_name_en":"Colombia","region_en":"Latin America and the Caribbean"},{"name_en":"San Agustín Archaeological Park","longitude":"-76.23333333","latitude":"1.916666667","states_name_en":"Colombia","region_en":"Latin America and the Caribbean"},{"name_en":"Coffee Cultural Landscape of Colombia","longitude":"-75.6816666667","latitude":"5.4716666667","states_name_en":"Colombia","region_en":"Latin America and the Caribbean"},{"name_en":"Chiribiquete National Park – “The Maloca of the Jaguar”","longitude":"-72.7972222222","latitude":"0.5252777778","states_name_en":"Colombia","region_en":"Latin America and the Caribbean"},{"name_en":"Malpelo Fauna and Flora Sanctuary","longitude":"-81.6166666666","latitude":"3.9666666667","states_name_en":"Colombia","region_en":"Latin America and the Caribbean"},{"name_en":"Cocos Island National Park","longitude":"-87.06666667","latitude":"5.533333333","states_name_en":"Costa Rica","region_en":"Latin America and the Caribbean"},{"name_en":"Area de Conservación Guanacaste","longitude":"-85.61666667","latitude":"10.85","states_name_en":"Costa Rica","region_en":"Latin America and the Caribbean"},{"name_en":"Precolumbian Chiefdom Settlements with Stone Spheres of the Diquís","longitude":"-83.4775","latitude":"8.9113888889","states_name_en":"Costa Rica","region_en":"Latin America and the Caribbean"},{"name_en":"Taï National Park","longitude":"-7.66667","latitude":"5.75","states_name_en":"Côte d'Ivoire","region_en":"Africa"},{"name_en":"Comoé National Park","longitude":"-4.0","latitude":"9.0","states_name_en":"Côte d'Ivoire","region_en":"Africa"},{"name_en":"Historic Town of Grand-Bassam","longitude":"3.7363888889","latitude":"5.1958333333","states_name_en":"Côte d'Ivoire","region_en":"Africa"},{"name_en":"Old City of Dubrovnik","longitude":"18.09139","latitude":"42.65056","states_name_en":"Croatia","region_en":"Europe and North America"},{"name_en":"Historical Complex of Split with the Palace of Diocletian","longitude":"16.44333","latitude":"43.50944","states_name_en":"Croatia","region_en":"Europe and North America"},{"name_en":"Plitvice Lakes National Park","longitude":"15.61444","latitude":"44.87778","states_name_en":"Croatia","region_en":"Europe and North America"},{"name_en":"Episcopal Complex of the Euphrasian Basilica in the Historic Centre of Poreč","longitude":"13.59444","latitude":"45.22917","states_name_en":"Croatia","region_en":"Europe and North America"},{"name_en":"Historic City of Trogir","longitude":"16.25167","latitude":"43.5125","states_name_en":"Croatia","region_en":"Europe and North America"},{"name_en":"The Cathedral of St James in Šibenik","longitude":"15.89038","latitude":"43.73629","states_name_en":"Croatia","region_en":"Europe and North America"},{"name_en":"Stari Grad Plain","longitude":"16.6386111111","latitude":"43.1816666667","states_name_en":"Croatia","region_en":"Europe and North America"},{"name_en":"Old Havana and its Fortification System","longitude":"-82.35","latitude":"23.13333333","states_name_en":"Cuba","region_en":"Latin America and the Caribbean"},{"name_en":"Trinidad and the Valley de los Ingenios","longitude":"-79.98444444","latitude":"21.80305556","states_name_en":"Cuba","region_en":"Latin America and the Caribbean"},{"name_en":"Alejandro de Humboldt National Park","longitude":"-75.0","latitude":"20.45","states_name_en":"Cuba","region_en":"Latin America and the Caribbean"},{"name_en":"Viñales Valley","longitude":"-83.71667","latitude":"22.61667","states_name_en":"Cuba","region_en":"Latin America and the Caribbean"},{"name_en":"San Pedro de la Roca Castle, Santiago de Cuba","longitude":"-75.87083333","latitude":"19.96666667","states_name_en":"Cuba","region_en":"Latin America and the Caribbean"},{"name_en":"Desembarco del Granma National Park","longitude":"-77.63333","latitude":"19.88333","states_name_en":"Cuba","region_en":"Latin America and the Caribbean"},{"name_en":"Archaeological Landscape of the First Coffee Plantations in the South-East of Cuba","longitude":"-75.39138889","latitude":"20.03","states_name_en":"Cuba","region_en":"Latin America and the Caribbean"},{"name_en":"Urban Historic Centre of Cienfuegos ","longitude":"-80.45278","latitude":"22.14722","states_name_en":"Cuba","region_en":"Latin America and the Caribbean"},{"name_en":"Historic Centre of Camagüey","longitude":"-77.9186111111","latitude":"21.3786111111","states_name_en":"Cuba","region_en":"Latin America and the Caribbean"},{"name_en":"Paphos","longitude":"32.40556","latitude":"34.75833","states_name_en":"Cyprus","region_en":"Europe and North America"},{"name_en":"Painted Churches in the Troodos Region","longitude":"33.09583333","latitude":"34.92027778","states_name_en":"Cyprus","region_en":"Europe and North America"},{"name_en":"Choirokoitia","longitude":"33.34333","latitude":"34.79833","states_name_en":"Cyprus","region_en":"Europe and North America"},{"name_en":"Historic Centre of Prague","longitude":"14.41944","latitude":"50.08972","states_name_en":"Czechia","region_en":"Europe and North America"},{"name_en":"Historic Centre of Český Krumlov","longitude":"14.31666667","latitude":"48.81666667","states_name_en":"Czechia","region_en":"Europe and North America"},{"name_en":"Historic Centre of Telč","longitude":"15.45","latitude":"49.18333","states_name_en":"Czechia","region_en":"Europe and North America"},{"name_en":"Pilgrimage Church of St John of Nepomuk at Zelená Hora","longitude":"15.9420583333","latitude":"49.5802","states_name_en":"Czechia","region_en":"Europe and North America"},{"name_en":"Kutná Hora: Historical Town Centre with the Church of St Barbara and the Cathedral of Our Lady at Sedlec","longitude":"15.2666666667","latitude":"49.95","states_name_en":"Czechia","region_en":"Europe and North America"},{"name_en":"Lednice-Valtice Cultural Landscape","longitude":"16.775","latitude":"48.77583","states_name_en":"Czechia","region_en":"Europe and North America"},{"name_en":"Holy Trinity Column in Olomouc","longitude":"17.2504583333","latitude":"49.5939361111","states_name_en":"Czechia","region_en":"Europe and North America"},{"name_en":"Gardens and Castle at Kroměříž","longitude":"17.37722222","latitude":"49.3","states_name_en":"Czechia","region_en":"Europe and North America"},{"name_en":"Holašovice Historic Village","longitude":"14.25277778","latitude":"48.95972222","states_name_en":"Czechia","region_en":"Europe and North America"},{"name_en":"Litomyšl Castle","longitude":"16.31444","latitude":"49.87361","states_name_en":"Czechia","region_en":"Europe and North America"},{"name_en":"Tugendhat Villa in Brno","longitude":"16.6160555556","latitude":"49.2071833333","states_name_en":"Czechia","region_en":"Europe and North America"},{"name_en":"Jewish Quarter and St Procopius' Basilica in Třebíč","longitude":"15.87888889","latitude":"49.21722222","states_name_en":"Czechia","region_en":"Europe and North America"},{"name_en":"Complex of Koguryo Tombs","longitude":"125.415","latitude":"38.86305556","states_name_en":"Democratic People's Republic of Korea","region_en":"Asia and the Pacific"},{"name_en":"Historic Monuments and Sites in Kaesong","longitude":"126.5080555556","latitude":"37.9816666667","states_name_en":"Democratic People's Republic of Korea","region_en":"Asia and the Pacific"},{"name_en":"Virunga National Park","longitude":"29.16666667","latitude":"0.916666667","states_name_en":"Democratic Republic of the Congo","region_en":"Africa"},{"name_en":"Garamba National Park","longitude":"29.25","latitude":"4.0","states_name_en":"Democratic Republic of the Congo","region_en":"Africa"},{"name_en":"Kahuzi-Biega National Park","longitude":"28.75","latitude":"-2.5","states_name_en":"Democratic Republic of the Congo","region_en":"Africa"},{"name_en":"Salonga National Park","longitude":"21.0","latitude":"-2.0","states_name_en":"Democratic Republic of the Congo","region_en":"Africa"},{"name_en":"Okapi Wildlife Reserve","longitude":"28.5","latitude":"2.0","states_name_en":"Democratic Republic of the Congo","region_en":"Africa"},{"name_en":"Roskilde Cathedral","longitude":"12.07972222","latitude":"55.64222222","states_name_en":"Denmark","region_en":"Europe and North America"},{"name_en":"Kronborg Castle","longitude":"12.62083333","latitude":"56.03889","states_name_en":"Denmark","region_en":"Europe and North America"},{"name_en":"Jelling Mounds, Runic Stones and Church","longitude":"9.42","latitude":"55.75638889","states_name_en":"Denmark","region_en":"Europe and North America"},{"name_en":"Ilulissat Icefjord","longitude":"-49.5","latitude":"69.13333333","states_name_en":"Denmark","region_en":"Europe and North America"},{"name_en":"Stevns Klint","longitude":"12.4233333333","latitude":"55.2672222222","states_name_en":"Denmark","region_en":"Europe and North America"},{"name_en":"Christiansfeld, a Moravian Church Settlement","longitude":"9.4813888889","latitude":"55.3555555556","states_name_en":"Denmark","region_en":"Europe and North America"},{"name_en":"The par force hunting landscape in North Zealand","longitude":"12.3577777778","latitude":"55.9136111111","states_name_en":"Denmark","region_en":"Europe and North America"},{"name_en":"Kujataa Greenland: Norse and Inuit Farming at the Edge of the Ice Cap","longitude":"-45.5980555556","latitude":"61.1644444444","states_name_en":"Denmark","region_en":"Europe and North America"},{"name_en":"Aasivissuit – Nipisat. Inuit Hunting Ground between Ice and Sea","longitude":"-51.4332055556","latitude":"67.0639305556","states_name_en":"Denmark","region_en":"Europe and North America"},{"name_en":"Morne Trois Pitons National Park","longitude":"-61.28333333","latitude":"15.26666667","states_name_en":"Dominica","region_en":"Latin America and the Caribbean"},{"name_en":"Colonial City of Santo Domingo","longitude":"-69.91666667","latitude":"18.48333333","states_name_en":"Dominican Republic","region_en":"Latin America and the Caribbean"},{"name_en":"Galápagos Islands","longitude":"-91.0","latitude":"-0.81667","states_name_en":"Ecuador","region_en":"Latin America and the Caribbean"},{"name_en":"City of Quito","longitude":"-78.5","latitude":"-0.003888889","states_name_en":"Ecuador","region_en":"Latin America and the Caribbean"},{"name_en":"Sangay National Park","longitude":"-78.33333","latitude":"-1.83333","states_name_en":"Ecuador","region_en":"Latin America and the Caribbean"},{"name_en":"Historic Centre of Santa Ana de los Ríos de Cuenca","longitude":"-78.98333333","latitude":"-2.883333333","states_name_en":"Ecuador","region_en":"Latin America and the Caribbean"},{"name_en":"Memphis and its Necropolis – the Pyramid Fields from Giza to Dahshur","longitude":"31.13041","latitude":"29.97604","states_name_en":"Egypt","region_en":"Arab States"},{"name_en":"Ancient Thebes with its Necropolis","longitude":"32.6","latitude":"25.73333","states_name_en":"Egypt","region_en":"Arab States"},{"name_en":"Nubian Monuments from Abu Simbel to Philae","longitude":"31.6258055556","latitude":"22.3372222222","states_name_en":"Egypt","region_en":"Arab States"},{"name_en":"Historic Cairo","longitude":"31.26111","latitude":"30.05","states_name_en":"Egypt","region_en":"Arab States"},{"name_en":"Abu Mena","longitude":"29.66666667","latitude":"30.8358333333","states_name_en":"Egypt","region_en":"Arab States"},{"name_en":"Saint Catherine Area","longitude":"33.97543","latitude":"28.55623","states_name_en":"Egypt","region_en":"Arab States"},{"name_en":"Wadi Al-Hitan (Whale Valley)","longitude":"30.18333","latitude":"29.33333","states_name_en":"Egypt","region_en":"Arab States"},{"name_en":"Joya de Cerén Archaeological Site","longitude":"-89.36916667","latitude":"13.8275","states_name_en":"El Salvador","region_en":"Latin America and the Caribbean"},{"name_en":"Asmara: A Modernist African City","longitude":"38.9358333333","latitude":"15.3352777778","states_name_en":"Eritrea","region_en":"Africa"},{"name_en":"Historic Centre (Old Town) of Tallinn","longitude":"24.73333333","latitude":"59.43333","states_name_en":"Estonia","region_en":"Europe and North America"},{"name_en":"Simien National Park","longitude":"38.0666666667","latitude":"13.1833333333","states_name_en":"Ethiopia","region_en":"Africa"},{"name_en":"Lower Valley of the Awash","longitude":"40.57939","latitude":"11.10006","states_name_en":"Ethiopia","region_en":"Africa"},{"name_en":"Tiya","longitude":"38.6121","latitude":"8.43491","states_name_en":"Ethiopia","region_en":"Africa"},{"name_en":"Aksum","longitude":"38.71861","latitude":"14.13019","states_name_en":"Ethiopia","region_en":"Africa"},{"name_en":"Lower Valley of the Omo","longitude":"35.96666667","latitude":"4.8","states_name_en":"Ethiopia","region_en":"Africa"},{"name_en":"Rock-Hewn Churches, Lalibela","longitude":"39.04042","latitude":"12.02935","states_name_en":"Ethiopia","region_en":"Africa"},{"name_en":"Fasil Ghebbi, Gondar Region","longitude":"37.46617","latitude":"12.60692","states_name_en":"Ethiopia","region_en":"Africa"},{"name_en":"Harar Jugol, the Fortified Historic Town","longitude":"42.1377777777","latitude":"9.3088888888","states_name_en":"Ethiopia","region_en":"Africa"},{"name_en":"Konso Cultural Landscape","longitude":"37.4","latitude":"5.3","states_name_en":"Ethiopia","region_en":"Africa"},{"name_en":"Levuka Historical Port Town","longitude":"178.8345333333","latitude":"-17.6833777778","states_name_en":"Fiji","region_en":"Asia and the Pacific"},{"name_en":"Bronze Age Burial Site of Sammallahdenmäki","longitude":"21.7775","latitude":"61.12056","states_name_en":"Finland","region_en":"Europe and North America"},{"name_en":"Old Rauma","longitude":"21.51167","latitude":"61.12806","states_name_en":"Finland","region_en":"Europe and North America"},{"name_en":"Fortress of Suomenlinna","longitude":"24.98722","latitude":"60.14722","states_name_en":"Finland","region_en":"Europe and North America"},{"name_en":"Petäjävesi Old Church","longitude":"25.18333","latitude":"62.25","states_name_en":"Finland","region_en":"Europe and North America"},{"name_en":"Verla Groundwood and Board Mill","longitude":"26.64083","latitude":"61.06194","states_name_en":"Finland","region_en":"Europe and North America"},{"name_en":"Mont-Saint-Michel and its Bay","longitude":"-1.51056","latitude":"48.63556","states_name_en":"France","region_en":"Europe and North America"},{"name_en":"Chartres Cathedral","longitude":"1.487222222","latitude":"48.4475","states_name_en":"France","region_en":"Europe and North America"},{"name_en":"Palace and Park of Versailles","longitude":"2.119444444","latitude":"48.805","states_name_en":"France","region_en":"Europe and North America"},{"name_en":"Vézelay, Church and Hill","longitude":"3.748333333","latitude":"47.46638889","states_name_en":"France","region_en":"Europe and North America"},{"name_en":"Prehistoric Sites and Decorated Caves of the Vézère Valley","longitude":"1.17","latitude":"45.0575","states_name_en":"France","region_en":"Europe and North America"},{"name_en":"Palace and Park of Fontainebleau","longitude":"2.698055556","latitude":"48.40194444","states_name_en":"France","region_en":"Europe and North America"},{"name_en":"Amiens Cathedral","longitude":"2.301666667","latitude":"49.895","states_name_en":"France","region_en":"Europe and North America"},{"name_en":"Roman Theatre and its Surroundings and the \"Triumphal Arch\" of Orange","longitude":"4.808416667","latitude":"44.13572222","states_name_en":"France","region_en":"Europe and North America"},{"name_en":"Arles, Roman and Romanesque Monuments","longitude":"4.630694444","latitude":"43.67763889","states_name_en":"France","region_en":"Europe and North America"},{"name_en":"Cistercian Abbey of Fontenay","longitude":"4.38911","latitude":"47.63944","states_name_en":"France","region_en":"Europe and North America"},{"name_en":"From the Great Saltworks of Salins-les-Bains to the Royal Saltworks of Arc-et-Senans, the Production of Open-pan Salt ","longitude":"5.8763888889","latitude":"46.9375","states_name_en":"France","region_en":"Europe and North America"},{"name_en":"Historic Centre of Avignon: Papal Palace, Episcopal Ensemble and Avignon Bridge","longitude":"4.806111111","latitude":"43.95277778","states_name_en":"France","region_en":"Europe and North America"},{"name_en":"Place Stanislas, Place de la Carrière and Place d'Alliance in Nancy","longitude":"6.183333333","latitude":"48.69361111","states_name_en":"France","region_en":"Europe and North America"},{"name_en":"Abbey Church of Saint-Savin sur Gartempe","longitude":"0.86611","latitude":"46.56472","states_name_en":"France","region_en":"Europe and North America"},{"name_en":"Gulf of Porto: Calanche of Piana, Gulf of Girolata, Scandola Reserve","longitude":"8.628833333","latitude":"42.32519444","states_name_en":"France","region_en":"Europe and North America"},{"name_en":"Pont du Gard (Roman Aqueduct)","longitude":"4.535277778","latitude":"43.94722222","states_name_en":"France","region_en":"Europe and North America"},{"name_en":"Historic Fortified City of Carcassonne","longitude":"2.358888889","latitude":"43.21055556","states_name_en":"France","region_en":"Europe and North America"},{"name_en":"Strasbourg, Grande-Île and <em>Neustadt</em>","longitude":"7.7488888889","latitude":"48.5844444444","states_name_en":"France","region_en":"Europe and North America"},{"name_en":"Paris, Banks of the Seine","longitude":"2.294166667","latitude":"48.85833333","states_name_en":"France","region_en":"Europe and North America"},{"name_en":"Cathedral of Notre-Dame, Former Abbey of Saint-Rémi and Palace of Tau, Reims","longitude":"4.032777778","latitude":"49.25333333","states_name_en":"France","region_en":"Europe and North America"},{"name_en":"Bourges Cathedral","longitude":"2.398333333","latitude":"47.08222222","states_name_en":"France","region_en":"Europe and North America"},{"name_en":"Canal du Midi","longitude":"1.416388889","latitude":"43.61138889","states_name_en":"France","region_en":"Europe and North America"},{"name_en":"Routes of Santiago de Compostela in France","longitude":"0.722944444","latitude":"45.18405556","states_name_en":"France","region_en":"Europe and North America"},{"name_en":"Historic Site of Lyon","longitude":"4.83333","latitude":"45.76722","states_name_en":"France","region_en":"Europe and North America"},{"name_en":"Provins, Town of Medieval Fairs","longitude":"3.298888889","latitude":"48.55972222","states_name_en":"France","region_en":"Europe and North America"},{"name_en":"Jurisdiction of Saint-Emilion","longitude":"-0.155277778","latitude":"44.89472222","states_name_en":"France","region_en":"Europe and North America"},{"name_en":"The Loire Valley between Sully-sur-Loire and Chalonnes","longitude":"0.70278","latitude":"47.39889","states_name_en":"France","region_en":"Europe and North America"},{"name_en":"Lagoons of New Caledonia: Reef Diversity and Associated Ecosystems","longitude":"164.5663888889","latitude":"-20.4119444444","states_name_en":"France","region_en":"Europe and North America"},{"name_en":"The Causses and the Cévennes, Mediterranean agro-pastoral Cultural Landscape","longitude":"3.4730555556","latitude":"44.2202777778","states_name_en":"France","region_en":"Europe and North America"},{"name_en":"Le Havre, the City Rebuilt by Auguste Perret","longitude":"0.1075","latitude":"49.49278","states_name_en":"France","region_en":"Europe and North America"},{"name_en":"Bordeaux, Port of the Moon","longitude":"-0.5722222222","latitude":"44.8388888889","states_name_en":"France","region_en":"Europe and North America"},{"name_en":"Fortifications of Vauban","longitude":"6.0269444444","latitude":"47.2361111111","states_name_en":"France","region_en":"Europe and North America"},{"name_en":"Pitons, cirques and remparts of Reunion Island","longitude":"55.48","latitude":"-21.0994444444","states_name_en":"France","region_en":"Europe and North America"},{"name_en":"Episcopal City of Albi","longitude":"2.1425","latitude":"43.9283333333","states_name_en":"France","region_en":"Europe and North America"},{"name_en":"Nord-Pas de Calais Mining Basin","longitude":"3.5461111111","latitude":"50.4625","states_name_en":"France","region_en":"Europe and North America"},{"name_en":"The Climats, terroirs of Burgundy","longitude":"4.8644444444","latitude":"47.0580555556","states_name_en":"France","region_en":"Europe and North America"},{"name_en":"Decorated Cave of Pont d’Arc, known as Grotte Chauvet-Pont d’Arc, Ardèche","longitude":"4.4161111111","latitude":"44.3875","states_name_en":"France","region_en":"Europe and North America"},{"name_en":"Chaîne des Puys - Limagne fault tectonic arena","longitude":"2.9651111111","latitude":"45.7793888889","states_name_en":"France","region_en":"Europe and North America"},{"name_en":"Champagne Hillsides, Houses and Cellars","longitude":"3.9461111111","latitude":"49.0775","states_name_en":"France","region_en":"Europe and North America"},{"name_en":"Taputapuātea","longitude":"-151.3723777778","latitude":"-16.8414","states_name_en":"France","region_en":"Europe and North America"},{"name_en":"Ecosystem and Relict Cultural Landscape of Lopé-Okanda","longitude":"11.5","latitude":"-0.5","states_name_en":"Gabon","region_en":"Africa"},{"name_en":"Kunta Kinteh Island and Related Sites","longitude":"-16.35719444","latitude":"13.31616667","states_name_en":"Gambia (the)","region_en":"Africa"},{"name_en":"Historical Monuments of Mtskheta","longitude":"44.71639","latitude":"41.84389","states_name_en":"Georgia","region_en":"Europe and North America"},{"name_en":"Upper Svaneti","longitude":"43.01139","latitude":"42.91639","states_name_en":"Georgia","region_en":"Europe and North America"},{"name_en":"Gelati Monastery","longitude":"42.7683333333","latitude":"42.2947222222","states_name_en":"Georgia","region_en":"Europe and North America"},{"name_en":"Aachen Cathedral ","longitude":"6.084444444","latitude":"50.77444444","states_name_en":"Germany","region_en":"Europe and North America"},{"name_en":"Speyer Cathedral","longitude":"8.443055556","latitude":"49.31666667","states_name_en":"Germany","region_en":"Europe and North America"},{"name_en":"Würzburg Residence with the Court Gardens and Residence Square","longitude":"9.93889","latitude":"49.79278","states_name_en":"Germany","region_en":"Europe and North America"},{"name_en":"St Mary's Cathedral and St Michael's Church at Hildesheim","longitude":"9.94389","latitude":"52.15278","states_name_en":"Germany","region_en":"Europe and North America"},{"name_en":"Pilgrimage Church of Wies","longitude":"10.90013889","latitude":"47.68127778","states_name_en":"Germany","region_en":"Europe and North America"},{"name_en":"Hanseatic City of Lübeck","longitude":"10.69167","latitude":"53.86667","states_name_en":"Germany","region_en":"Europe and North America"},{"name_en":"Castles of Augustusburg and Falkenlust at Brühl","longitude":"6.909777778","latitude":"50.82502778","states_name_en":"Germany","region_en":"Europe and North America"},{"name_en":"Cologne Cathedral","longitude":"6.957222222","latitude":"50.94111111","states_name_en":"Germany","region_en":"Europe and North America"},{"name_en":"Roman Monuments, Cathedral of St Peter and Church of Our Lady in Trier","longitude":"6.633333333","latitude":"49.75","states_name_en":"Germany","region_en":"Europe and North America"},{"name_en":"Abbey and Altenmünster of Lorsch","longitude":"8.56858","latitude":"49.65369","states_name_en":"Germany","region_en":"Europe and North America"},{"name_en":"Palaces and Parks of Potsdam and Berlin","longitude":"13.03333333","latitude":"52.4","states_name_en":"Germany","region_en":"Europe and North America"},{"name_en":"Garden Kingdom of Dessau-Wörlitz","longitude":"12.42083","latitude":"51.8425","states_name_en":"Germany","region_en":"Europe and North America"},{"name_en":"Collegiate Church, Castle and Old Town of Quedlinburg","longitude":"11.15","latitude":"51.78333","states_name_en":"Germany","region_en":"Europe and North America"},{"name_en":"Maulbronn Monastery Complex","longitude":"8.81306","latitude":"49.00083","states_name_en":"Germany","region_en":"Europe and North America"},{"name_en":"Mines of Rammelsberg, Historic Town of Goslar and Upper Harz Water Management  System","longitude":"10.34","latitude":"51.82","states_name_en":"Germany","region_en":"Europe and North America"},{"name_en":"Town of Bamberg","longitude":"10.88888889","latitude":"49.89166667","states_name_en":"Germany","region_en":"Europe and North America"},{"name_en":"Völklingen Ironworks","longitude":"6.85","latitude":"49.24444","states_name_en":"Germany","region_en":"Europe and North America"},{"name_en":"Messel Pit Fossil Site","longitude":"8.75389","latitude":"49.91667","states_name_en":"Germany","region_en":"Europe and North America"},{"name_en":"Bauhaus and its Sites in Weimar, Dessau and Bernau","longitude":"11.3295","latitude":"50.9747777778","states_name_en":"Germany","region_en":"Europe and North America"},{"name_en":"Luther Memorials in Eisleben and Wittenberg","longitude":"12.65278","latitude":"51.86472","states_name_en":"Germany","region_en":"Europe and North America"},{"name_en":"Classical Weimar","longitude":"11.32861","latitude":"50.9775","states_name_en":"Germany","region_en":"Europe and North America"},{"name_en":"Museumsinsel (Museum Island), Berlin","longitude":"13.39861111","latitude":"52.51972222","states_name_en":"Germany","region_en":"Europe and North America"},{"name_en":"Wartburg Castle","longitude":"10.307","latitude":"50.96677778","states_name_en":"Germany","region_en":"Europe and North America"},{"name_en":"Monastic Island of Reichenau","longitude":"9.061305556","latitude":"47.69872222","states_name_en":"Germany","region_en":"Europe and North America"},{"name_en":"Zollverein Coal Mine Industrial Complex in Essen","longitude":"7.046111111","latitude":"51.49138889","states_name_en":"Germany","region_en":"Europe and North America"},{"name_en":"Upper Middle Rhine Valley","longitude":"7.694166667","latitude":"50.17361111","states_name_en":"Germany","region_en":"Europe and North America"},{"name_en":"Historic Centres of Stralsund and Wismar","longitude":"13.08527778","latitude":"54.3025","states_name_en":"Germany","region_en":"Europe and North America"},{"name_en":"Town Hall and Roland on the Marketplace of Bremen","longitude":"8.807472222","latitude":"53.07597222","states_name_en":"Germany","region_en":"Europe and North America"},{"name_en":"Old town of Regensburg with Stadtamhof","longitude":"12.09916667","latitude":"49.02055556","states_name_en":"Germany","region_en":"Europe and North America"},{"name_en":"Berlin Modernism Housing Estates","longitude":"13.45","latitude":"52.4483333333","states_name_en":"Germany","region_en":"Europe and North America"},{"name_en":"Fagus Factory in Alfeld","longitude":"9.8111111111","latitude":"51.9836111111","states_name_en":"Germany","region_en":"Europe and North America"},{"name_en":"Margravial Opera House Bayreuth","longitude":"11.5786111111","latitude":"49.9444444444","states_name_en":"Germany","region_en":"Europe and North America"},{"name_en":"Bergpark Wilhelmshöhe","longitude":"9.3930555556","latitude":"51.3158333333","states_name_en":"Germany","region_en":"Europe and North America"},{"name_en":"Carolingian Westwork and Civitas Corvey","longitude":"9.41025","latitude":"51.7782777778","states_name_en":"Germany","region_en":"Europe and North America"},{"name_en":"Speicherstadt and Kontorhaus District with Chilehaus","longitude":"9.9994444444","latitude":"53.5455555556","states_name_en":"Germany","region_en":"Europe and North America"},{"name_en":"Naumburg Cathedral","longitude":"11.804","latitude":"51.1548055556","states_name_en":"Germany","region_en":"Europe and North America"},{"name_en":"Caves and Ice Age Art in the Swabian Jura","longitude":"9.7655555556","latitude":"48.3877777778","states_name_en":"Germany","region_en":"Europe and North America"},{"name_en":"Archaeological Border complex of Hedeby and the Danevirke","longitude":"9.4541111111","latitude":"54.4619444444","states_name_en":"Germany","region_en":"Europe and North America"},{"name_en":"Forts and Castles, Volta, Greater Accra, Central and Western Regions","longitude":"-0.49361","latitude":"5.39103","states_name_en":"Ghana","region_en":"Africa"},{"name_en":"Asante Traditional Buildings","longitude":"-1.6258333333","latitude":"6.4011111111","states_name_en":"Ghana","region_en":"Africa"},{"name_en":"Temple of Apollo Epicurius at Bassae","longitude":"21.89694","latitude":"37.43498","states_name_en":"Greece","region_en":"Europe and North America"},{"name_en":"Archaeological Site of Delphi","longitude":"22.49617","latitude":"38.48149","states_name_en":"Greece","region_en":"Europe and North America"},{"name_en":"Acropolis, Athens","longitude":"23.72618","latitude":"37.97087","states_name_en":"Greece","region_en":"Europe and North America"},{"name_en":"Mount Athos","longitude":"24.21667","latitude":"40.26667","states_name_en":"Greece","region_en":"Europe and North America"},{"name_en":"Meteora","longitude":"21.63333","latitude":"39.71667","states_name_en":"Greece","region_en":"Europe and North America"},{"name_en":"Paleochristian and Byzantine Monuments of Thessalonika","longitude":"22.965","latitude":"40.63833","states_name_en":"Greece","region_en":"Europe and North America"},{"name_en":"Sanctuary of Asklepios at Epidaurus","longitude":"23.11666667","latitude":"37.66666667","states_name_en":"Greece","region_en":"Europe and North America"},{"name_en":"Medieval City of Rhodes","longitude":"28.22778","latitude":"36.44722","states_name_en":"Greece","region_en":"Europe and North America"},{"name_en":"Archaeological Site of Mystras","longitude":"22.36667","latitude":"37.08056","states_name_en":"Greece","region_en":"Europe and North America"},{"name_en":"Archaeological Site of Olympia","longitude":"21.66666667","latitude":"37.65","states_name_en":"Greece","region_en":"Europe and North America"},{"name_en":"Delos","longitude":"25.26667","latitude":"37.4","states_name_en":"Greece","region_en":"Europe and North America"},{"name_en":"Monasteries of Daphni, Hosios Loukas and Nea Moni of Chios","longitude":"22.75","latitude":"38.4","states_name_en":"Greece","region_en":"Europe and North America"},{"name_en":"Pythagoreion and Heraion of Samos","longitude":"26.94333","latitude":"37.69083","states_name_en":"Greece","region_en":"Europe and North America"},{"name_en":"Archaeological Site of Aigai (modern name Vergina)","longitude":"22.31833","latitude":"40.47139","states_name_en":"Greece","region_en":"Europe and North America"},{"name_en":"Archaeological Sites of Mycenae and Tiryns","longitude":"22.75","latitude":"37.73333333","states_name_en":"Greece","region_en":"Europe and North America"},{"name_en":"The Historic Centre (Chorá) with the Monastery of Saint-John the Theologian and the Cave of the Apocalypse on the Island of Pátmos","longitude":"26.55","latitude":"37.3","states_name_en":"Greece","region_en":"Europe and North America"},{"name_en":"Old Town of Corfu","longitude":"19.9275","latitude":"39.6239413889","states_name_en":"Greece","region_en":"Europe and North America"},{"name_en":"Archaeological Site of Philippi","longitude":"24.2852777778","latitude":"41.0147222222","states_name_en":"Greece","region_en":"Europe and North America"},{"name_en":"Tikal National Park","longitude":"-89.61666667","latitude":"17.21666667","states_name_en":"Guatemala","region_en":"Latin America and the Caribbean"},{"name_en":"Antigua Guatemala","longitude":"-90.66666667","latitude":"14.56666667","states_name_en":"Guatemala","region_en":"Latin America and the Caribbean"},{"name_en":"Archaeological Park and Ruins of Quirigua","longitude":"-89.04025","latitude":"15.27059","states_name_en":"Guatemala","region_en":"Latin America and the Caribbean"},{"name_en":"National History Park – Citadel, Sans Souci, Ramiers","longitude":"-72.24417","latitude":"19.57361","states_name_en":"Haiti","region_en":"Latin America and the Caribbean"},{"name_en":"Vatican City","longitude":"12.45736","latitude":"41.90216","states_name_en":"Holy See","region_en":"Europe and North America"},{"name_en":"Maya Site of Copan","longitude":"-89.13333","latitude":"14.85","states_name_en":"Honduras","region_en":"Latin America and the Caribbean"},{"name_en":"Río Plátano Biosphere Reserve","longitude":"-84.675","latitude":"15.74444444","states_name_en":"Honduras","region_en":"Latin America and the Caribbean"},{"name_en":"Budapest, including the Banks of the Danube, the Buda Castle Quarter and Andrássy Avenue","longitude":"19.07067","latitude":"47.48242","states_name_en":"Hungary","region_en":"Europe and North America"},{"name_en":"Old Village of Hollókő and its Surroundings","longitude":"19.52917","latitude":"47.99444","states_name_en":"Hungary","region_en":"Europe and North America"},{"name_en":"Hortobágy National Park - the <i>Puszta</i>","longitude":"21.15678","latitude":"47.59458","states_name_en":"Hungary","region_en":"Europe and North America"},{"name_en":"Millenary Benedictine Abbey of Pannonhalma and its Natural Environment","longitude":"17.78444","latitude":"47.55889","states_name_en":"Hungary","region_en":"Europe and North America"},{"name_en":"Early Christian Necropolis of Pécs (Sopianae)","longitude":"18.22778","latitude":"46.07444","states_name_en":"Hungary","region_en":"Europe and North America"},{"name_en":"Tokaj Wine Region Historic Cultural Landscape","longitude":"21.35","latitude":"48.15","states_name_en":"Hungary","region_en":"Europe and North America"},{"name_en":"Þingvellir National Park","longitude":"-21.03725","latitude":"64.25380556","states_name_en":"Iceland","region_en":"Europe and North America"},{"name_en":"Surtsey","longitude":"-20.6022222222","latitude":"63.3030555556","states_name_en":"Iceland","region_en":"Europe and North America"},{"name_en":"Red Fort Complex","longitude":"77.2408333333","latitude":"28.6555555556","states_name_en":"India","region_en":"Asia and the Pacific"},{"name_en":"Humayun's Tomb, Delhi","longitude":"77.25056","latitude":"28.59333","states_name_en":"India","region_en":"Asia and the Pacific"},{"name_en":"Qutb Minar and its Monuments, Delhi","longitude":"77.18528","latitude":"28.52583","states_name_en":"India","region_en":"Asia and the Pacific"},{"name_en":"Churches and Convents of Goa","longitude":"73.91167","latitude":"15.50222","states_name_en":"India","region_en":"Asia and the Pacific"},{"name_en":"Group of Monuments at Pattadakal","longitude":"75.81667","latitude":"15.94833","states_name_en":"India","region_en":"Asia and the Pacific"},{"name_en":"Khajuraho Group of Monuments","longitude":"79.92222","latitude":"24.85222","states_name_en":"India","region_en":"Asia and the Pacific"},{"name_en":"Group of Monuments at Hampi","longitude":"76.47167","latitude":"15.31444","states_name_en":"India","region_en":"Asia and the Pacific"},{"name_en":"Ajanta Caves","longitude":"75.7","latitude":"20.55333","states_name_en":"India","region_en":"Asia and the Pacific"},{"name_en":"Ellora Caves","longitude":"75.17917","latitude":"20.02639","states_name_en":"India","region_en":"Asia and the Pacific"},{"name_en":"Elephanta Caves","longitude":"72.93583","latitude":"18.96667","states_name_en":"India","region_en":"Asia and the Pacific"},{"name_en":"Sun Temple, Konârak","longitude":"86.09472","latitude":"19.8875","states_name_en":"India","region_en":"Asia and the Pacific"},{"name_en":"Hill Forts of Rajasthan","longitude":"74.6461111111","latitude":"24.8833333333","states_name_en":"India","region_en":"Asia and the Pacific"},{"name_en":"Group of Monuments at Mahabalipuram","longitude":"80.19167","latitude":"12.61667","states_name_en":"India","region_en":"Asia and the Pacific"},{"name_en":"Great Living Chola Temples","longitude":"79.1325","latitude":"10.78305556","states_name_en":"India","region_en":"Asia and the Pacific"},{"name_en":"Agra Fort","longitude":"78.03333333","latitude":"27.18333333","states_name_en":"India","region_en":"Asia and the Pacific"},{"name_en":"Taj Mahal","longitude":"78.04222","latitude":"27.17417","states_name_en":"India","region_en":"Asia and the Pacific"},{"name_en":"Fatehpur Sikri","longitude":"77.66417","latitude":"27.09444","states_name_en":"India","region_en":"Asia and the Pacific"},{"name_en":"Nanda Devi and Valley of Flowers National Parks  ","longitude":"79.66667","latitude":"30.71667","states_name_en":"India","region_en":"Asia and the Pacific"},{"name_en":"Kaziranga National Park","longitude":"93.41666667","latitude":"26.66666667","states_name_en":"India","region_en":"Asia and the Pacific"},{"name_en":"Manas Wildlife Sanctuary","longitude":"91.03055556","latitude":"26.725","states_name_en":"India","region_en":"Asia and the Pacific"},{"name_en":"Keoladeo National Park","longitude":"77.50861111","latitude":"27.15888889","states_name_en":"India","region_en":"Asia and the Pacific"},{"name_en":"Sundarbans National Park","longitude":"88.89583333","latitude":"21.945","states_name_en":"India","region_en":"Asia and the Pacific"},{"name_en":"Buddhist Monuments at Sanchi","longitude":"77.73972","latitude":"23.47944","states_name_en":"India","region_en":"Asia and the Pacific"},{"name_en":"Rani-ki-Vav (the Queen’s Stepwell) at Patan, Gujarat","longitude":"72.1016666667","latitude":"23.8588888889","states_name_en":"India","region_en":"Asia and the Pacific"},{"name_en":"Rock Shelters of Bhimbetka","longitude":"77.58333333","latitude":"22.92777778","states_name_en":"India","region_en":"Asia and the Pacific"},{"name_en":"Mountain Railways of India","longitude":"76.93583","latitude":"11.51028","states_name_en":"India","region_en":"Asia and the Pacific"},{"name_en":"Chhatrapati Shivaji Terminus (formerly Victoria Terminus)","longitude":"72.8362027777","latitude":"18.9401222222","states_name_en":"India","region_en":"Asia and the Pacific"},{"name_en":"Mahabodhi Temple Complex at Bodh Gaya","longitude":"84.99389","latitude":"24.69528","states_name_en":"India","region_en":"Asia and the Pacific"},{"name_en":"Champaner-Pavagadh Archaeological Park","longitude":"73.53333333","latitude":"22.48333333","states_name_en":"India","region_en":"Asia and the Pacific"},{"name_en":"The Jantar Mantar, Jaipur","longitude":"75.825","latitude":"26.9247222222","states_name_en":"India","region_en":"Asia and the Pacific"},{"name_en":"Western Ghats","longitude":"77.2497222222","latitude":"8.5297222222","states_name_en":"India","region_en":"Asia and the Pacific"},{"name_en":"Great Himalayan National Park Conservation Area","longitude":"77.5833333333","latitude":"31.8333333333","states_name_en":"India","region_en":"Asia and the Pacific"},{"name_en":"Victorian Gothic and Art Deco Ensembles of Mumbai","longitude":"72.8300833333","latitude":"18.9298055556","states_name_en":"India","region_en":"Asia and the Pacific"},{"name_en":"Archaeological Site of Nalanda Mahavihara at Nalanda, Bihar","longitude":"85.4438888889","latitude":"25.1366666667","states_name_en":"India","region_en":"Asia and the Pacific"},{"name_en":"Khangchendzonga National Park","longitude":"88.3772222222","latitude":"27.7647222222","states_name_en":"India","region_en":"Asia and the Pacific"},{"name_en":"Historic City of Ahmadabad","longitude":"72.5880555556","latitude":"23.0263888889","states_name_en":"India","region_en":"Asia and the Pacific"},{"name_en":"Borobudur Temple Compounds","longitude":"110.20361","latitude":"-7.60778","states_name_en":"Indonesia","region_en":"Asia and the Pacific"},{"name_en":"Sangiran Early Man Site","longitude":"110.8166667","latitude":"-7.4","states_name_en":"Indonesia","region_en":"Asia and the Pacific"},{"name_en":"Ujung Kulon National Park","longitude":"105.3333333","latitude":"-6.75","states_name_en":"Indonesia","region_en":"Asia and the Pacific"},{"name_en":"Komodo National Park","longitude":"119.48944","latitude":"-8.54333","states_name_en":"Indonesia","region_en":"Asia and the Pacific"},{"name_en":"Prambanan Temple Compounds","longitude":"110.49167","latitude":"-7.75222","states_name_en":"Indonesia","region_en":"Asia and the Pacific"},{"name_en":"Lorentz National Park","longitude":"137.83333","latitude":"-4.75","states_name_en":"Indonesia","region_en":"Asia and the Pacific"},{"name_en":"Tropical Rainforest Heritage of Sumatra","longitude":"101.5","latitude":"-2.5","states_name_en":"Indonesia","region_en":"Asia and the Pacific"},{"name_en":"Cultural Landscape of Bali Province: the <em>Subak</em> System as a Manifestation of the <em>Tri Hita Karana</em> Philosophy","longitude":"115.4027777778","latitude":"-8.2591666667","states_name_en":"Indonesia","region_en":"Asia and the Pacific"},{"name_en":"Tchogha Zanbil","longitude":"48.53333333","latitude":"32.0833","states_name_en":"Iran (Islamic Republic of)","region_en":"Asia and the Pacific"},{"name_en":"Persepolis","longitude":"52.89028","latitude":"29.93444","states_name_en":"Iran (Islamic Republic of)","region_en":"Asia and the Pacific"},{"name_en":"Meidan Emam, Esfahan","longitude":"51.6777777777","latitude":"32.65745","states_name_en":"Iran (Islamic Republic of)","region_en":"Asia and the Pacific"},{"name_en":"Takht-e Soleyman","longitude":"47.235","latitude":"36.60388889","states_name_en":"Iran (Islamic Republic of)","region_en":"Asia and the Pacific"},{"name_en":"Pasargadae","longitude":"53.16729","latitude":"30.19383","states_name_en":"Iran (Islamic Republic of)","region_en":"Asia and the Pacific"},{"name_en":"Soltaniyeh","longitude":"48.79667","latitude":"36.43528","states_name_en":"Iran (Islamic Republic of)","region_en":"Asia and the Pacific"},{"name_en":"Bam and its Cultural Landscape","longitude":"58.3666666667","latitude":"29.11683","states_name_en":"Iran (Islamic Republic of)","region_en":"Asia and the Pacific"},{"name_en":"Bisotun","longitude":"47.4366666666","latitude":"34.3883333333","states_name_en":"Iran (Islamic Republic of)","region_en":"Asia and the Pacific"},{"name_en":"Armenian Monastic Ensembles of Iran","longitude":"45.4733333333","latitude":"38.9788888889","states_name_en":"Iran (Islamic Republic of)","region_en":"Asia and the Pacific"},{"name_en":"Shushtar Historical Hydraulic System","longitude":"48.8358333333","latitude":"32.0186111111","states_name_en":"Iran (Islamic Republic of)","region_en":"Asia and the Pacific"},{"name_en":"Sheikh Safi al-din Khānegāh and Shrine Ensemble in Ardabil","longitude":"48.2913888889","latitude":"38.2486111111","states_name_en":"Iran (Islamic Republic of)","region_en":"Asia and the Pacific"},{"name_en":"Tabriz Historic Bazaar Complex","longitude":"46.2930555556","latitude":"38.0813888889","states_name_en":"Iran (Islamic Republic of)","region_en":"Asia and the Pacific"},{"name_en":"The Persian Garden","longitude":"53.1666666667","latitude":"30.1666666667","states_name_en":"Iran (Islamic Republic of)","region_en":"Asia and the Pacific"},{"name_en":"Masjed-e Jāmé of Isfahan  ","longitude":"51.6852777778","latitude":"32.6697222222","states_name_en":"Iran (Islamic Republic of)","region_en":"Asia and the Pacific"},{"name_en":"Gonbad-e Qābus","longitude":"55.169","latitude":"37.2580277778","states_name_en":"Iran (Islamic Republic of)","region_en":"Asia and the Pacific"},{"name_en":"Golestan Palace","longitude":"51.4205111111","latitude":"35.6803666667","states_name_en":"Iran (Islamic Republic of)","region_en":"Asia and the Pacific"},{"name_en":"Cultural Landscape of Maymand","longitude":"55.3755555556","latitude":"30.1680555556","states_name_en":"Iran (Islamic Republic of)","region_en":"Asia and the Pacific"},{"name_en":"Susa","longitude":"48.2561111111","latitude":"32.1894444444","states_name_en":"Iran (Islamic Republic of)","region_en":"Asia and the Pacific"},{"name_en":"Shahr-i Sokhta","longitude":"61.3277777778","latitude":"30.5938888889","states_name_en":"Iran (Islamic Republic of)","region_en":"Asia and the Pacific"},{"name_en":"Lut Desert","longitude":"58.8388888889","latitude":"30.2161111111","states_name_en":"Iran (Islamic Republic of)","region_en":"Asia and the Pacific"},{"name_en":"The Persian Qanat","longitude":"58.6544444444","latitude":"34.29","states_name_en":"Iran (Islamic Republic of)","region_en":"Asia and the Pacific"},{"name_en":"Historic City of Yazd","longitude":"54.3691666667","latitude":"31.9013888889","states_name_en":"Iran (Islamic Republic of)","region_en":"Asia and the Pacific"},{"name_en":"Sassanid Archaeological Landscape of Fars Region","longitude":"51.57045","latitude":"29.7774805556","states_name_en":"Iran (Islamic Republic of)","region_en":"Asia and the Pacific"},{"name_en":"Samarra Archaeological City","longitude":"43.8235430555","latitude":"34.3409894444","states_name_en":"Iraq","region_en":"Arab States"},{"name_en":"Hatra","longitude":"42.71833","latitude":"35.58806","states_name_en":"Iraq","region_en":"Arab States"},{"name_en":"Ashur (Qal'at Sherqat)","longitude":"43.2611111111","latitude":"35.4566666667","states_name_en":"Iraq","region_en":"Arab States"},{"name_en":"Erbil Citadel","longitude":"44.0091666667","latitude":"36.1911111111","states_name_en":"Iraq","region_en":"Arab States"},{"name_en":"The Ahwar of Southern Iraq: Refuge of Biodiversity and the Relict Landscape of the Mesopotamian Cities","longitude":"47.6577777778","latitude":"31.5622222222","states_name_en":"Iraq","region_en":"Arab States"},{"name_en":"Brú na Bóinne - Archaeological Ensemble of the Bend of the Boyne","longitude":"-6.45","latitude":"53.69167","states_name_en":"Ireland","region_en":"Europe and North America"},{"name_en":"Sceilg Mhichíl","longitude":"-10.53861","latitude":"51.77194","states_name_en":"Ireland","region_en":"Europe and North America"},{"name_en":"Masada","longitude":"35.35275","latitude":"31.3135","states_name_en":"Israel","region_en":"Europe and North America"},{"name_en":"Old City of Acre","longitude":"35.08388889","latitude":"32.92833333","states_name_en":"Israel","region_en":"Europe and North America"},{"name_en":"White City of Tel-Aviv – the Modern Movement","longitude":"34.78333333","latitude":"32.06666667","states_name_en":"Israel","region_en":"Europe and North America"},{"name_en":"Incense Route - Desert Cities in the Negev","longitude":"35.16083","latitude":"30.54111","states_name_en":"Israel","region_en":"Europe and North America"},{"name_en":"Biblical Tels - Megiddo, Hazor, Beer Sheba","longitude":"35.18222","latitude":"32.59722","states_name_en":"Israel","region_en":"Europe and North America"},{"name_en":"Bahá’i Holy Places in Haifa and the Western Galilee","longitude":"34.9716488888","latitude":"32.8293966667","states_name_en":"Israel","region_en":"Europe and North America"},{"name_en":"Caves of Maresha and Bet-Guvrin in the Judean Lowlands as a Microcosm of the Land of the Caves","longitude":"34.8955555556","latitude":"31.6","states_name_en":"Israel","region_en":"Europe and North America"},{"name_en":"Sites of Human Evolution at Mount Carmel: The Nahal Me’arot / Wadi el-Mughara Caves","longitude":"34.9652777778","latitude":"32.67","states_name_en":"Israel","region_en":"Europe and North America"},{"name_en":"Necropolis of Bet She’arim: A Landmark of Jewish Renewal","longitude":"35.1269444444","latitude":"32.7022222222","states_name_en":"Israel","region_en":"Europe and North America"},{"name_en":"Church and Dominican Convent of Santa Maria delle Grazie with “The Last Supper” by Leonardo da Vinci","longitude":"9.1705","latitude":"45.46588889","states_name_en":"Italy","region_en":"Europe and North America"},{"name_en":"Rock Drawings in Valcamonica","longitude":"10.29733333","latitude":"45.95705556","states_name_en":"Italy","region_en":"Europe and North America"},{"name_en":"Historic Centre of Florence","longitude":"11.25611","latitude":"43.77306","states_name_en":"Italy","region_en":"Europe and North America"},{"name_en":"Medici Villas and Gardens in Tuscany","longitude":"11.3041666667","latitude":"43.8577777778","states_name_en":"Italy","region_en":"Europe and North America"},{"name_en":"Venice and its Lagoon","longitude":"12.33894444","latitude":"45.43430556","states_name_en":"Italy","region_en":"Europe and North America"},{"name_en":"Piazza del Duomo, Pisa","longitude":"10.39638889","latitude":"43.72305556","states_name_en":"Italy","region_en":"Europe and North America"},{"name_en":"Castel del Monte","longitude":"16.27094444","latitude":"41.08480556","states_name_en":"Italy","region_en":"Europe and North America"},{"name_en":"18th-Century Royal Palace at Caserta with the Park, the Aqueduct of Vanvitelli, and the San Leucio Complex","longitude":"14.32639","latitude":"41.07333","states_name_en":"Italy","region_en":"Europe and North America"},{"name_en":"Historic Centre of San Gimignano","longitude":"11.04167","latitude":"43.46806","states_name_en":"Italy","region_en":"Europe and North America"},{"name_en":"The Sassi and the Park of the Rupestrian Churches of Matera","longitude":"16.61027778","latitude":"40.66638889","states_name_en":"Italy","region_en":"Europe and North America"},{"name_en":"City of Vicenza and the Palladian Villas of the Veneto","longitude":"11.54944444","latitude":"45.54916667","states_name_en":"Italy","region_en":"Europe and North America"},{"name_en":"Historic Centre of Siena","longitude":"11.33166667","latitude":"43.31861111","states_name_en":"Italy","region_en":"Europe and North America"},{"name_en":"Historic Centre of Naples","longitude":"14.26277778","latitude":"40.85138889","states_name_en":"Italy","region_en":"Europe and North America"},{"name_en":"Crespi d'Adda","longitude":"9.53833","latitude":"45.59333","states_name_en":"Italy","region_en":"Europe and North America"},{"name_en":"Ferrara, City of the Renaissance, and its Po Delta","longitude":"11.61944444","latitude":"44.83777778","states_name_en":"Italy","region_en":"Europe and North America"},{"name_en":"The <I>Trulli</I> of Alberobello","longitude":"17.23694","latitude":"40.7825","states_name_en":"Italy","region_en":"Europe and North America"},{"name_en":"Early Christian Monuments of Ravenna","longitude":"12.19625","latitude":"44.42041667","states_name_en":"Italy","region_en":"Europe and North America"},{"name_en":"Historic Centre of the City of Pienza","longitude":"11.67861111","latitude":"43.07694444","states_name_en":"Italy","region_en":"Europe and North America"},{"name_en":"City of Verona","longitude":"10.99388889","latitude":"45.43861111","states_name_en":"Italy","region_en":"Europe and North America"},{"name_en":"Residences of the Royal House of Savoy","longitude":"7.68572","latitude":"45.07253","states_name_en":"Italy","region_en":"Europe and North America"},{"name_en":"Botanical Garden (Orto Botanico), Padua","longitude":"11.88066667","latitude":"45.39911111","states_name_en":"Italy","region_en":"Europe and North America"},{"name_en":"Archaeological Area and the Patriarchal Basilica of Aquileia","longitude":"13.3675","latitude":"45.76833333","states_name_en":"Italy","region_en":"Europe and North America"},{"name_en":"Portovenere, Cinque Terre, and the Islands (Palmaria, Tino and Tinetto)","longitude":"9.72917","latitude":"44.10694","states_name_en":"Italy","region_en":"Europe and North America"},{"name_en":"Cathedral, Torre Civica and Piazza Grande, Modena","longitude":"10.92568","latitude":"44.64624","states_name_en":"Italy","region_en":"Europe and North America"},{"name_en":"Historic Centre of Urbino","longitude":"12.63333","latitude":"43.725","states_name_en":"Italy","region_en":"Europe and North America"},{"name_en":"Archaeological Areas of Pompei, Herculaneum and Torre Annunziata","longitude":"14.48333333","latitude":"40.75","states_name_en":"Italy","region_en":"Europe and North America"},{"name_en":"Costiera Amalfitana","longitude":"14.6","latitude":"40.65","states_name_en":"Italy","region_en":"Europe and North America"},{"name_en":"Archaeological Area of Agrigento","longitude":"13.59333333","latitude":"37.28972222","states_name_en":"Italy","region_en":"Europe and North America"},{"name_en":"Villa Romana del Casale","longitude":"14.33417","latitude":"37.36611","states_name_en":"Italy","region_en":"Europe and North America"},{"name_en":"Su Nuraxi di Barumini","longitude":"8.991388889","latitude":"39.70583333","states_name_en":"Italy","region_en":"Europe and North America"},{"name_en":"Cilento and Vallo di Diano National Park with the Archeological Sites of Paestum and Velia, and the Certosa di Padula","longitude":"15.26666667","latitude":"40.28333333","states_name_en":"Italy","region_en":"Europe and North America"},{"name_en":"Villa Adriana (Tivoli)","longitude":"12.77197222","latitude":"41.94416667","states_name_en":"Italy","region_en":"Europe and North America"},{"name_en":"Isole Eolie (Aeolian Islands)","longitude":"14.94558333","latitude":"38.48786111","states_name_en":"Italy","region_en":"Europe and North America"},{"name_en":"Assisi, the Basilica of San Francesco and Other Franciscan Sites","longitude":"12.62244444","latitude":"43.06616667","states_name_en":"Italy","region_en":"Europe and North America"},{"name_en":"Late Baroque Towns of the Val di Noto (South-Eastern Sicily)","longitude":"15.06891667","latitude":"36.89319444","states_name_en":"Italy","region_en":"Europe and North America"},{"name_en":"Villa d'Este, Tivoli","longitude":"12.79625","latitude":"41.96391667","states_name_en":"Italy","region_en":"Europe and North America"},{"name_en":"Val d'Orcia","longitude":"11.55","latitude":"43.06666667","states_name_en":"Italy","region_en":"Europe and North America"},{"name_en":"<I>Sacri Monti</I> of Piedmont and Lombardy","longitude":"9.169555556","latitude":"45.97455556","states_name_en":"Italy","region_en":"Europe and North America"},{"name_en":"Etruscan Necropolises of Cerveteri and Tarquinia","longitude":"12.10188889","latitude":"42.00683333","states_name_en":"Italy","region_en":"Europe and North America"},{"name_en":"Syracuse and the Rocky Necropolis of Pantalica","longitude":"15.29306","latitude":"37.05944","states_name_en":"Italy","region_en":"Europe and North America"},{"name_en":"Genoa: <i>Le Strade Nuove</i> and the system of the<i> Palazzi dei Rolli</i>","longitude":"8.9311111111","latitude":"44.4122222222","states_name_en":"Italy","region_en":"Europe and North America"},{"name_en":"The Dolomites","longitude":"12.1630555556","latitude":"46.6130555556","states_name_en":"Italy","region_en":"Europe and North America"},{"name_en":"Mantua and Sabbioneta","longitude":"10.7944444444","latitude":"45.1594444444","states_name_en":"Italy","region_en":"Europe and North America"},{"name_en":"Longobards in Italy. Places of the Power (568-774 A.D.)","longitude":"13.4330555556","latitude":"46.0941666667","states_name_en":"Italy","region_en":"Europe and North America"},{"name_en":"Vineyard Landscape of Piedmont: Langhe-Roero and Monferrato","longitude":"7.9636111111","latitude":"44.6086111111","states_name_en":"Italy","region_en":"Europe and North America"},{"name_en":"Mount Etna","longitude":"14.9966666667","latitude":"37.7561111111","states_name_en":"Italy","region_en":"Europe and North America"},{"name_en":"Arab-Norman Palermo and the Cathedral Churches of Cefalú and Monreale","longitude":"13.3530555556","latitude":"38.1108333333","states_name_en":"Italy","region_en":"Europe and North America"},{"name_en":"Ivrea, industrial city of the 20th century","longitude":"7.8691666667","latitude":"45.4575","states_name_en":"Italy","region_en":"Europe and North America"},{"name_en":"Blue and John Crow Mountains ","longitude":"-76.5711111111","latitude":"18.0775","states_name_en":"Jamaica","region_en":"Latin America and the Caribbean"},{"name_en":"Buddhist Monuments in the Horyu-ji Area","longitude":"135.7333333","latitude":"34.61666667","states_name_en":"Japan","region_en":"Asia and the Pacific"},{"name_en":"Himeji-jo","longitude":"134.7","latitude":"34.83333333","states_name_en":"Japan","region_en":"Asia and the Pacific"},{"name_en":"Yakushima","longitude":"130.5333333","latitude":"30.33333333","states_name_en":"Japan","region_en":"Asia and the Pacific"},{"name_en":"Shirakami-Sanchi","longitude":"140.13","latitude":"40.47","states_name_en":"Japan","region_en":"Asia and the Pacific"},{"name_en":"Historic Monuments of Ancient Kyoto (Kyoto, Uji and Otsu Cities)","longitude":"135.7694444","latitude":"34.98055556","states_name_en":"Japan","region_en":"Asia and the Pacific"},{"name_en":"Historic Villages of Shirakawa-go and Gokayama","longitude":"136.8833333","latitude":"36.4","states_name_en":"Japan","region_en":"Asia and the Pacific"},{"name_en":"Hiroshima Peace Memorial (Genbaku Dome)","longitude":"132.45","latitude":"34.38333333","states_name_en":"Japan","region_en":"Asia and the Pacific"},{"name_en":"Itsukushima Shinto Shrine","longitude":"132.3246389","latitude":"34.29441667","states_name_en":"Japan","region_en":"Asia and the Pacific"},{"name_en":"Historic Monuments of Ancient Nara","longitude":"135.8394444","latitude":"34.67555556","states_name_en":"Japan","region_en":"Asia and the Pacific"},{"name_en":"Shrines and Temples of Nikko","longitude":"139.6105556","latitude":"36.7475","states_name_en":"Japan","region_en":"Asia and the Pacific"},{"name_en":"Gusuku Sites and Related Properties of the Kingdom of Ryukyu","longitude":"127.6827778","latitude":"26.20861111","states_name_en":"Japan","region_en":"Asia and the Pacific"},{"name_en":"Sacred Sites and Pilgrimage Routes in the Kii Mountain Range","longitude":"135.7763889","latitude":"33.83694444","states_name_en":"Japan","region_en":"Asia and the Pacific"},{"name_en":"Shiretoko","longitude":"144.96583","latitude":"43.94944","states_name_en":"Japan","region_en":"Asia and the Pacific"},{"name_en":"Iwami Ginzan Silver Mine and its Cultural Landscape","longitude":"132.435","latitude":"35.1127777777","states_name_en":"Japan","region_en":"Asia and the Pacific"},{"name_en":"Hiraizumi – Temples, Gardens and Archaeological Sites Representing the Buddhist Pure Land","longitude":"141.1077777778","latitude":"39.0011111111","states_name_en":"Japan","region_en":"Asia and the Pacific"},{"name_en":"Ogasawara Islands","longitude":"142.0997222222","latitude":"27.7183333333","states_name_en":"Japan","region_en":"Asia and the Pacific"},{"name_en":"Fujisan, sacred place and source of artistic inspiration","longitude":"138.7275","latitude":"35.3608333333","states_name_en":"Japan","region_en":"Asia and the Pacific"},{"name_en":"Tomioka Silk Mill and Related Sites","longitude":"138.8877777778","latitude":"36.2552777778","states_name_en":"Japan","region_en":"Asia and the Pacific"},{"name_en":"Sites of Japan’s Meiji Industrial Revolution: Iron and Steel, Shipbuilding and Coal Mining","longitude":"131.4122222222","latitude":"34.4305555556","states_name_en":"Japan","region_en":"Asia and the Pacific"},{"name_en":"Hidden Christian Sites in the Nagasaki Region","longitude":"128.9038888889","latitude":"32.8022222222","states_name_en":"Japan","region_en":"Asia and the Pacific"},{"name_en":"Sacred Island of Okinoshima and Associated Sites in the Munakata Region ","longitude":"130.1055555556","latitude":"34.245","states_name_en":"Japan","region_en":"Asia and the Pacific"},{"name_en":"Old City of Jerusalem and its Walls","longitude":"35.21666667","latitude":"31.78333333","states_name_en":"Jerusalem (Site proposed by Jordan)","region_en":"Arab States"},{"name_en":"Petra","longitude":"35.44333","latitude":"30.33056","states_name_en":"Jordan","region_en":"Arab States"},{"name_en":"Quseir Amra","longitude":"36.58583","latitude":"31.80194","states_name_en":"Jordan","region_en":"Arab States"},{"name_en":"Um er-Rasas (Kastrom Mefa'a)","longitude":"35.92056","latitude":"31.50167","states_name_en":"Jordan","region_en":"Arab States"},{"name_en":"Wadi Rum Protected Area","longitude":"35.4338888889","latitude":"29.6397222222","states_name_en":"Jordan","region_en":"Arab States"},{"name_en":"Baptism Site “Bethany Beyond the Jordan” (Al-Maghtas)","longitude":"35.5527777778","latitude":"31.8372222222","states_name_en":"Jordan","region_en":"Arab States"},{"name_en":"Saryarka – Steppe and Lakes of Northern Kazakhstan","longitude":"69.1888888889","latitude":"50.4333333333","states_name_en":"Kazakhstan","region_en":"Asia and the Pacific"},{"name_en":"Mausoleum of Khoja Ahmed Yasawi","longitude":"68.27444444","latitude":"43.29305556","states_name_en":"Kazakhstan","region_en":"Asia and the Pacific"},{"name_en":"Petroglyphs within the Archaeological Landscape of Tamgaly","longitude":"75.535","latitude":"43.80333333","states_name_en":"Kazakhstan","region_en":"Asia and the Pacific"},{"name_en":"Mount Kenya National Park/Natural Forest","longitude":"37.3155555556","latitude":"-0.155","states_name_en":"Kenya","region_en":"Africa"},{"name_en":"Lake Turkana National Parks","longitude":"36.50366667","latitude":"3.051305556","states_name_en":"Kenya","region_en":"Africa"},{"name_en":"Lamu Old Town","longitude":"40.8525","latitude":"-2.284444444","states_name_en":"Kenya","region_en":"Africa"},{"name_en":"Kenya Lake System in the Great Rift Valley","longitude":"36.24","latitude":"-0.4425","states_name_en":"Kenya","region_en":"Africa"},{"name_en":"Sacred Mijikenda Kaya Forests","longitude":"39.5961111111","latitude":"-3.9319444444","states_name_en":"Kenya","region_en":"Africa"},{"name_en":"Fort Jesus, Mombasa","longitude":"39.6794444444","latitude":"-4.0627777778","states_name_en":"Kenya","region_en":"Africa"},{"name_en":"Thimlich Ohinga Archaeological Site","longitude":"34.326107","latitude":"-0.8913380556","states_name_en":"Kenya","region_en":"Africa"},{"name_en":"Phoenix Islands Protected Area","longitude":"-172.8575","latitude":"-3.6497222222","states_name_en":"Kiribati","region_en":"Asia and the Pacific"},{"name_en":"Sulaiman-Too Sacred Mountain","longitude":"72.7827777778","latitude":"40.5311111111","states_name_en":"Kyrgyzstan","region_en":"Asia and the Pacific"},{"name_en":"Town of Luang Prabang","longitude":"102.13333","latitude":"19.88889","states_name_en":"Lao People's Democratic Republic","region_en":"Asia and the Pacific"},{"name_en":"Vat Phou and Associated Ancient Settlements within the Champasak Cultural Landscape","longitude":"105.8222222222","latitude":"14.8483333333","states_name_en":"Lao People's Democratic Republic","region_en":"Asia and the Pacific"},{"name_en":"Historic Centre of Riga","longitude":"24.11667","latitude":"56.95417","states_name_en":"Latvia","region_en":"Europe and North America"},{"name_en":"Anjar","longitude":"35.92972","latitude":"33.72583","states_name_en":"Lebanon","region_en":"Arab States"},{"name_en":"Baalbek","longitude":"36.20494","latitude":"34.00707","states_name_en":"Lebanon","region_en":"Arab States"},{"name_en":"Byblos","longitude":"35.6475","latitude":"34.11917","states_name_en":"Lebanon","region_en":"Arab States"},{"name_en":"Tyre","longitude":"35.19444","latitude":"33.27194","states_name_en":"Lebanon","region_en":"Arab States"},{"name_en":"Ouadi Qadisha (the Holy Valley) and the Forest of the Cedars of God (Horsh Arz el-Rab)","longitude":"36.04889","latitude":"34.24333","states_name_en":"Lebanon","region_en":"Arab States"},{"name_en":"Archaeological Site of Leptis Magna","longitude":"14.29306","latitude":"32.63833","states_name_en":"Libya","region_en":"Arab States"},{"name_en":"Archaeological Site of Sabratha","longitude":"12.485","latitude":"32.80528","states_name_en":"Libya","region_en":"Arab States"},{"name_en":"Archaeological Site of Cyrene","longitude":"21.85833","latitude":"32.825","states_name_en":"Libya","region_en":"Arab States"},{"name_en":"Rock-Art Sites of Tadrart Acacus","longitude":"10.33333","latitude":"24.83333","states_name_en":"Libya","region_en":"Arab States"},{"name_en":"Old Town of Ghadamès","longitude":"9.5","latitude":"30.13333333","states_name_en":"Libya","region_en":"Arab States"},{"name_en":"Vilnius Historic Centre","longitude":"25.29306","latitude":"54.68667","states_name_en":"Lithuania","region_en":"Europe and North America"},{"name_en":"Kernavė  Archaeological Site (Cultural Reserve of Kernavė)","longitude":"24.83055556","latitude":"54.88777778","states_name_en":"Lithuania","region_en":"Europe and North America"},{"name_en":"City of Luxembourg: its Old Quarters and Fortifications","longitude":"6.13333","latitude":"49.61","states_name_en":"Luxembourg","region_en":"Europe and North America"},{"name_en":"Tsingy de Bemaraha Strict Nature Reserve","longitude":"44.75","latitude":"-18.66667","states_name_en":"Madagascar","region_en":"Africa"},{"name_en":"Royal Hill of Ambohimanga","longitude":"47.56278","latitude":"-18.75917","states_name_en":"Madagascar","region_en":"Africa"},{"name_en":"Rainforests of the Atsinanana","longitude":"49.7025","latitude":"-14.4597222222","states_name_en":"Madagascar","region_en":"Africa"},{"name_en":"Lake Malawi National Park","longitude":"34.88333","latitude":"-14.03333","states_name_en":"Malawi","region_en":"Africa"},{"name_en":"Chongoni Rock-Art Area","longitude":"34.2791666666","latitude":"-14.2933333333","states_name_en":"Malawi","region_en":"Africa"},{"name_en":"Kinabalu Park","longitude":"116.5","latitude":"6.25","states_name_en":"Malaysia","region_en":"Asia and the Pacific"},{"name_en":"Gunung Mulu National Park","longitude":"114.91667","latitude":"4.13333","states_name_en":"Malaysia","region_en":"Asia and the Pacific"},{"name_en":"Melaka and George Town, Historic Cities of the Straits of Malacca","longitude":"100.3458333333","latitude":"5.4213888889","states_name_en":"Malaysia","region_en":"Asia and the Pacific"},{"name_en":"Archaeological Heritage of the Lenggong Valley","longitude":"100.9723277778","latitude":"5.0679083333","states_name_en":"Malaysia","region_en":"Asia and the Pacific"},{"name_en":"Old Towns of Djenné","longitude":"-4.555","latitude":"13.90639","states_name_en":"Mali","region_en":"Africa"},{"name_en":"Timbuktu","longitude":"-2.999444444","latitude":"16.77333333","states_name_en":"Mali","region_en":"Africa"},{"name_en":"Cliff of Bandiagara (Land of the Dogons)","longitude":"-3.41667","latitude":"14.33333","states_name_en":"Mali","region_en":"Africa"},{"name_en":"Tomb of Askia","longitude":"-0.04456","latitude":"16.2898","states_name_en":"Mali","region_en":"Africa"},{"name_en":"Ħal Saflieni Hypogeum","longitude":"14.50739","latitude":"35.87134","states_name_en":"Malta","region_en":"Europe and North America"},{"name_en":"City of Valletta","longitude":"14.51444","latitude":"35.90056","states_name_en":"Malta","region_en":"Europe and North America"},{"name_en":"Megalithic Temples of Malta","longitude":"14.26947","latitude":"36.04908","states_name_en":"Malta","region_en":"Europe and North America"},{"name_en":"Bikini Atoll Nuclear Test Site","longitude":"165.3805555556","latitude":"11.6","states_name_en":"Marshall Islands","region_en":"Asia and the Pacific"},{"name_en":"Banc d'Arguin National Park","longitude":"-16.10889","latitude":"20.23472","states_name_en":"Mauritania","region_en":"Arab States"},{"name_en":"Ancient <I>Ksour</I> of Ouadane, Chinguetti, Tichitt and Oualata","longitude":"-11.62361","latitude":"20.92889","states_name_en":"Mauritania","region_en":"Arab States"},{"name_en":"Aapravasi Ghat","longitude":"57.5031666666","latitude":"-20.1586388889","states_name_en":"Mauritius","region_en":"Africa"},{"name_en":"Le Morne Cultural Landscape","longitude":"57.3283333333","latitude":"-20.4519444444","states_name_en":"Mauritius","region_en":"Africa"},{"name_en":"Sian Ka'an","longitude":"-87.79167","latitude":"19.38333","states_name_en":"Mexico","region_en":"Latin America and the Caribbean"},{"name_en":"Pre-Hispanic City and National Park of Palenque","longitude":"-92.05","latitude":"17.48333","states_name_en":"Mexico","region_en":"Latin America and the Caribbean"},{"name_en":"Historic Centre of Mexico City and Xochimilco","longitude":"-99.13278","latitude":"19.41833","states_name_en":"Mexico","region_en":"Latin America and the Caribbean"},{"name_en":"Pre-Hispanic City of Teotihuacan","longitude":"-98.84167","latitude":"19.69167","states_name_en":"Mexico","region_en":"Latin America and the Caribbean"},{"name_en":"Historic Centre of Oaxaca and Archaeological Site of Monte Albán","longitude":"-96.72167","latitude":"17.06194","states_name_en":"Mexico","region_en":"Latin America and the Caribbean"},{"name_en":"Historic Centre of Puebla","longitude":"-98.20833","latitude":"19.04722","states_name_en":"Mexico","region_en":"Latin America and the Caribbean"},